time,x,y,z,velocity_x,velocity_y,velocity_z,speed,roll,pitch,yaw,state,target_waypoint,obstacle_avoiding
0.0,1.5241476236129299e-16,1.1164029556871343e-17,0.9714285714285713,0.0,0.0,0.0,0.0,0.0,0.0,0.0,NAVIGATE,-1,0
0.023003761232325563,0.008008008008008159,0.02129060262402148,0.974857139421704,0.3481173329496621,0.9255270218203833,0.1490438002075422,0.9999999999999999,0.0,0.0,0.0,NAVIGATE,-1,0
0.04588807834086818,0.016016016016016165,0.042453205633068876,0.9782788365370949,0.34993432270778363,0.9247644536942502,0.14952148666536175,1.0,0.0,0.0,0.0,NAVIGATE,-1,0
0.068653283646166,0.02402402402402417,0.06348806579668075,0.9816936627747437,0.35176524439884643,0.9239916742027678,0.15000199611000595,1.0,0.0,0.0,0.0,NAVIGATE,-1,0
0.09124047593546686,0.03203203203203218,0.08433182523121648,0.9850981826957802,0.35453755851723356,0.9228132105825763,0.1507278938183556,1.0000000000000002,0.0,0.0,0.0,NAVIGATE,-1,0
0.11382766822476771,0.040040040040040185,0.1051755846657522,0.9885027026168167,0.35453755851723356,0.9228132105825763,0.1507278938183556,1.0000000000000002,0.0,0.0,0.0,NAVIGATE,-1,0
0.1362375410939135,0.048048048048048186,0.1258287569102889,0.9918969162212405,0.3573428575328301,0.9216104154241885,0.15146063631164197,1.0000000000000007,0.0,0.0,0.0,NAVIGATE,-1,0
0.15852964055800597,0.05605605605605621,0.14635521338754442,0.9952842589479227,0.3592307678739327,0.9207951234166611,0.15195261137868227,1.0,0.0,0.0,0.0,NAVIGATE,-1,0
0.18070430356202752,0.0640640640640642,0.16675521086705714,0.9986647307968628,0.36113324502634747,0.9199687713771801,0.15244749596992777,0.9999999999999997,0.0,0.0,0.0,NAVIGATE,-1,0
0.20276186801645402,0.07207207207207222,0.18702900611836581,1.0020383317680612,0.36305041857878284,0.9191311802894969,0.15294530718333318,0.9999999999999986,0.0,0.0,0.0,NAVIGATE,-1,0
0.2247026728112972,0.08008008008008019,0.20717685591100887,1.0054050618615182,0.3649824189625951,0.9182821679074635,0.15344606202632546,1.0000000000000027,0.0,0.0,0.0,NAVIGATE,-1,0
0.24652705783037387,0.08808808808808824,0.22719901701452494,1.0087649210772334,0.36692937743758886,0.917421548694944,0.15394977740624907,0.9999999999999998,0.0,0.0,0.0,NAVIGATE,-1,0
0.26823536396580194,0.09609609609609623,0.24709574619845254,1.0121179094152069,0.3688914260767165,0.9165491337647957,0.1544564701205033,0.9999999999999984,0.0,0.0,0.0,NAVIGATE,-1,0
0.2898279331327291,0.10410410410410423,0.2668673002323303,1.0154640268754382,0.3708686977496722,0.9156647308168129,0.1549661568460581,1.0000000000000007,0.0,0.0,0.0,NAVIGATE,-1,0
0.3112475695586097,0.11211211211211222,0.2864516050802104,1.0187998380190573,0.37386292879986455,0.9143154654211141,0.1557361234940701,1.0000000000000007,0.0,0.0,0.0,NAVIGATE,-1,0
0.3326672059844903,0.12012012012012023,0.30603590992809043,1.022135649162676,0.37386292879986616,0.9143154654211139,0.15573612349406013,0.9999999999999994,0.0,0.0,0.0,NAVIGATE,-1,0
0.35391462619299513,0.12812812812812827,0.32543347912905,1.0254611539896825,0.3768931912403473,0.9129376183370815,0.15651334582611218,0.9999999999999999,0.0,0.0,0.0,NAVIGATE,-1,0
0.3750476876267717,0.13613613613613626,0.34470690025811385,1.028779787938947,0.37893269903663573,0.9120032698272234,0.1570351725737408,1.0000000000000004,0.0,0.0,0.0,NAVIGATE,-1,0
0.3960667375454088,0.14414414414414423,0.3638564300848206,1.03209155101047,0.3809881055045911,0.9110559183613407,0.15756007452013635,0.9999999999999971,0.0,0.0,0.0,NAVIGATE,-1,0
0.4169154529448578,0.15215215215215225,0.38282063649706904,1.0353930077653801,0.38410078772621375,0.9096103068656975,0.15835300600809965,1.0000000000000038,0.0,0.0,0.0,NAVIGATE,-1,0
0.4377641683443069,0.16016016016016027,0.4017848429093175,1.0386944645202902,0.3841007877262127,0.9096103068656951,0.15835300600809923,1.000000000000001,0.0,0.0,0.0,NAVIGATE,-1,0
0.4584432785222794,0.16816816816816826,0.42056423944618454,1.0419856149585882,0.3872510924835721,0.9081336854073633,0.15915338764449014,0.9999999999999987,0.0,0.0,0.0,NAVIGATE,-1,0
0.4790097775539981,0.17617617617617626,0.43922077175884877,1.0452698945191439,0.3893714722985977,0.9071321416392347,0.15969074539572709,1.0000000000000024,0.0,0.0,0.0,NAVIGATE,-1,0
0.4994640184485534,0.1841841841841843,0.45775469661684887,1.0485473032019577,0.39150844312876376,0.9061164847693565,0.1602312547167758,0.999999999999998,0.0,0.0,0.0,NAVIGATE,-1,0
0.5197505656954109,0.1921921921921923,0.47610522383192966,1.0518144055681593,0.39474474934360715,0.9045663114467851,0.16104772914019383,1.0000000000000013,0.0,0.0,0.0,NAVIGATE,-1,0
0.5399536024940392,0.2002002002002003,0.49436430899508943,1.0550763547760544,0.3963764501261359,0.9037792360205695,0.1614583609587148,0.999999999999998,0.0,0.0,0.0,NAVIGATE,-1,0
0.5601566392926676,0.20820820820820832,0.5126233941582492,1.0583383039839496,0.3963764501261373,0.9037792360205695,0.1614583609587148,0.9999999999999986,0.0,0.0,0.0,NAVIGATE,-1,0
0.5801101486206078,0.2162162162162163,0.5306087950894922,1.0615847937169258,0.401333313172868,0.9013653004917097,0.1627026945295431,0.9999999999999977,0.0,0.0,0.0,NAVIGATE,-1,0
0.6000636579485479,0.2242242242242243,0.5485941960207351,1.0648312834499019,0.40133331317287246,0.9013653004917143,0.1627026945295338,1.000000000000002,0.0,0.0,0.0,NAVIGATE,-1,0
0.6198518317496325,0.23223223223223233,0.5663978683110595,1.0680674668662655,0.4046865612009671,0.8997127511255505,0.16354128728070308,1.0,0.0,0.0,0.0,NAVIGATE,-1,0
0.639530253132098,0.24024024024024038,0.5840807305334897,1.0712967794048875,0.40694361871646995,0.8985915017648014,0.16410424778785937,0.999999999999998,0.0,0.0,0.0,NAVIGATE,-1,0
0.6590447559715353,0.24824824824824837,0.6015828911931556,1.0745157856268968,0.41036187669738694,0.8968796593831364,0.164954559616238,0.9999999999999996,0.0,0.0,0.0,NAVIGATE,-1,0
0.6785592588109728,0.25625625625625637,0.6190850518528215,1.077734791848906,0.4103618766973846,0.896879659383137,0.16495455961623706,0.999999999999999,0.0,0.0,0.0,NAVIGATE,-1,0
0.6979106071707332,0.2642642642642643,0.6364070244888,1.0809434917543026,0.41382170684601843,0.8951300092348221,0.16581273024203674,1.0000000000000016,0.0,0.0,0.0,NAVIGATE,-1,0
0.7171536638407066,0.2722722722722723,0.6536092141350386,1.0841453207819574,0.4161505183583221,0.8939426797552703,0.16638879584296232,1.0000000000000024,0.0,0.0,0.0,NAVIGATE,-1,0
0.7362887974844334,0.2802802802802804,0.6706918775610757,1.0873402789318707,0.4184976262568928,0.8927381299809947,0.16696816491588715,0.9999999999999981,0.0,0.0,0.0,NAVIGATE,-1,0
0.7553163781996759,0.2882882882882884,0.6876552715364501,1.090528366204042,0.42086317371882187,0.8915160697116624,0.16755084736638895,1.000000000000002,0.0,0.0,0.0,NAVIGATE,-1,0
0.7742367775398215,0.2962962962962964,0.7044996528306999,1.0937095825984715,0.4232473038249513,0.8902762035529123,0.16813685257052896,1.0000000000000004,0.0,0.0,0.0,NAVIGATE,-1,0
0.7930503685356111,0.3043043043043044,0.7212252782133641,1.0968839281151592,0.4256501594937483,0.8890182308314938,0.16872618934886588,1.0000000000000009,0.0,0.0,0.0,NAVIGATE,-1,0
0.811757525717195,0.3123123123123124,0.7378324044539812,1.1000514027541053,0.4280718834121634,0.8877418455095819,0.16931886593994416,0.999999999999992,0.0,0.0,0.0,NAVIGATE,-1,0
0.8303586251365201,0.32032032032032043,0.7543212883220896,1.10321200651531,0.43051261796323226,0.886446736098704,0.16991488997263252,1.0000000000000064,0.0,0.0,0.0,NAVIGATE,-1,0
0.8488540443900555,0.32832832832832837,0.7706921865872276,1.1063657393987725,0.43297250515028035,0.8851325855729802,0.17051426843755998,1.0000000000000075,0.0,0.0,0.0,NAVIGATE,-1,0
0.8672441626418542,0.3363363363363364,0.7869453560189343,1.1095126014044934,0.43545168651782873,0.8837990712820482,0.17111700765780055,0.999999999999996,0.0,0.0,0.0,NAVIGATE,-1,0
0.8854770721116176,0.3443443443443444,0.8030224457395707,1.1126491570936015,0.43920626169334587,0.8817621645792653,0.17202716298841955,0.9999999999999997,0.0,0.0,0.0,NAVIGATE,-1,0
0.9037099815813812,0.3523523523523524,0.8190995354602072,1.1157857127827095,0.4392062616933432,0.881762164579266,0.1720271629884185,0.999999999999999,0.0,0.0,0.0,NAVIGATE,-1,0
0.9217864878412594,0.3603603603603604,0.8350010590088508,1.1189119621552053,0.44300640250279993,0.8796790331070717,0.17294544241851673,1.0000000000000009,0.0,0.0,0.0,NAVIGATE,-1,0
0.939759225904732,0.3683683683683685,0.8507858808022173,1.1220313406499594,0.44556416388682474,0.878264721692415,0.17356167344884546,0.999999999999992,0.0,0.0,0.0,NAVIGATE,-1,0
0.9576285831317858,0.37637637637637644,0.8664542576098444,1.1251438482669711,0.4481419172640426,0.8768293458203188,0.1741812857319516,1.000000000000008,0.0,0.0,0.0,NAVIGATE,-1,0
0.9753949485956604,0.3843843843843845,0.882006446201272,1.1282494850062417,0.4507397995550173,0.8753725472466904,0.17480428090851893,1.0000000000000004,0.0,0.0,0.0,NAVIGATE,-1,0
0.9930587131083634,0.3923923923923925,0.8974427033460376,1.1313482508677704,0.4533579465605438,0.8738939614862168,0.17543065971583838,1.0000000000000002,0.0,0.0,0.0,NAVIGATE,-1,0
1.010620269246557,0.4004004004004004,0.9127632858136803,1.1344401458515572,0.45599649285018745,0.8723932177241903,0.1760604219498773,1.000000000000003,0.0,0.0,0.0,NAVIGATE,-1,0
1.0280800113778044,0.4084084084084085,0.9279684503737388,1.1375251699576021,0.45865557164651527,0.8708699387287068,0.17669356642580178,1.000000000000001,0.0,0.0,0.0,NAVIGATE,-1,0
1.0454383356871835,0.41641641641641647,0.9430584537957512,1.1406033231859054,0.4613353147043737,0.8693237407633236,0.1773300909374123,0.9999999999999964,0.0,0.0,0.0,NAVIGATE,-1,0
1.0626956402042707,0.4244244244244244,0.9580335528492561,1.1436746055364673,0.4640358521853094,0.8677542335002226,0.1779699922152304,0.9999999999999971,0.0,0.0,0.0,NAVIGATE,-1,0
1.0798523248304945,0.43243243243243246,0.9728940043037926,1.1467390170092873,0.4667573125269121,0.8661610199340268,0.17861326588331997,1.0000000000000022,0.0,0.0,0.0,NAVIGATE,-1,0
1.0969087913668607,0.4404404404404405,0.9876400649288989,1.1497965576043654,0.46949982230693216,0.8645436962964261,0.1792599064149147,1.000000000000006,0.0,0.0,0.0,NAVIGATE,-1,0
1.1138654435420523,0.44844844844844856,1.0022719914941136,1.1528472273217019,0.47226350610199763,0.8629018519718143,0.17990990708647966,1.000000000000002,0.0,0.0,0.0,NAVIGATE,-1,0
1.1307226870409028,0.45645645645645644,1.016790040768975,1.1558910261612962,0.4750484863408382,0.8612350694140053,0.18056325993048217,0.9999999999999954,0.0,0.0,0.0,NAVIGATE,-1,0
1.147480929533247,0.46446446446446443,1.0311944695230217,1.1589279541231492,0.4778548831517582,0.8595429240642171,0.18121995568690016,1.0000000000000033,0.0,0.0,0.0,NAVIGATE,-1,0
1.1641405807031464,0.4724724724724726,1.045485534525793,1.1619580112072605,0.4806828142042399,0.8578249842705193,0.18187998375296213,1.000000000000001,0.0,0.0,0.0,NAVIGATE,-1,0
1.1807020522784895,0.4804804804804806,1.0596634925468267,1.16498119741363,0.48353239454460256,0.8560808112089549,0.18254333213181342,1.0000000000000024,0.0,0.0,0.0,NAVIGATE,-1,0
1.197165758060973,0.48848848848848847,1.0737286003556614,1.1679975127422575,0.4864037364253674,0.8543099588064369,0.18320998737943714,0.9999999999999938,0.0,0.0,0.0,NAVIGATE,-1,0
1.2135321139564554,0.4964964964964965,1.087681114721836,1.171006957193143,0.4892969491283297,0.8525119736657879,0.18387993455013046,0.9999999999999942,0.0,0.0,0.0,NAVIGATE,-1,0
1.229801538005688,0.5045045045045045,1.1015212924148887,1.1740095307662874,0.49221213878101105,0.8506863949929258,0.1845531571405647,0.9999999999999937,0.0,0.0,0.0,NAVIGATE,-1,0
1.2459744504154184,0.5125125125125125,1.1152493902043588,1.1770052334616898,0.4951494081665831,0.8488327545266654,0.18522963703185658,0.9999999999999984,0.0,0.0,0.0,NAVIGATE,-1,0
1.2620512735898695,0.5205205205205207,1.1288656648597843,1.1799940652793506,0.4981088565267254,0.8469505764711217,0.18590935443082654,1.0000000000000069,0.0,0.0,0.0,NAVIGATE,-1,0
1.2780324321625869,0.5285285285285286,1.1423703731507033,1.1829760262192694,0.5010905793575555,0.8450393774312357,0.18659228780881937,0.9999999999999951,0.0,0.0,0.0,NAVIGATE,-1,0
1.2939183530286587,0.5365365365365364,1.155763771846655,1.1859511162814462,0.5040946681983585,0.843098666351563,0.1872784138394396,1.0000000000000069,0.0,0.0,0.0,NAVIGATE,-1,0
1.3097094653772987,0.5445445445445445,1.169046117717178,1.1889193354658818,0.5071212104128754,0.841127944458391,0.18796770733451196,1.0000000000000053,0.0,0.0,0.0,NAVIGATE,-1,0
1.3254062007247913,0.5525525525525525,1.1822176675318106,1.1918806837725755,0.510170288963128,0.839126705206032,0.18866014117813013,1.0000000000000022,0.0,0.0,0.0,NAVIGATE,-1,0
1.3410089929478002,0.5605605605605607,1.195278678060092,1.1948351612015273,0.5132419821754112,0.8370944342270196,0.1893556862594741,0.9999999999999977,0.0,0.0,0.0,NAVIGATE,-1,0
1.3565182783170258,0.5685685685685686,1.2082294060715597,1.1977827677527377,0.5163363634985976,0.8350306092868326,0.19005431140361978,0.9999999999999994,0.0,0.0,0.0,NAVIGATE,-1,0
1.3719344955312185,0.5765765765765766,1.2210701083357525,1.2007235034262058,0.5194535012542166,0.8329347002435296,0.19075598330054266,0.9999999999999999,0.0,0.0,0.0,NAVIGATE,-1,0
1.3872580857515342,0.5845845845845846,1.2338010416222098,1.2036573682219327,0.5225934583783892,0.8308061690124643,0.19146066643293702,0.9999999999999986,0.0,0.0,0.0,NAVIGATE,-1,0
1.402489492636224,0.5925925925925926,1.2464224627004694,1.2065843621399175,0.5257562921556129,0.8286444695365844,0.1921683230015305,1.000000000000003,0.0,0.0,0.0,NAVIGATE,-1,0
1.4176291623756632,0.6006006006006007,1.2589346283400702,1.2095044851801608,0.5289420539436921,0.8264490477626634,0.19287891284948974,0.9999999999999928,0.0,0.0,0.0,NAVIGATE,-1,0
1.4326775437276973,0.6086086086086087,1.2713377953105505,1.212417737342662,0.5321507888903598,0.8242193416239886,0.1935923933843725,1.0000000000000016,0.0,0.0,0.0,NAVIGATE,-1,0
1.4476350880533095,0.6166166166166166,1.283632220381449,1.2153241186274215,0.5353825356409333,0.8219547810295569,0.19430871949902465,1.0000000000000062,0.0,0.0,0.0,NAVIGATE,-1,0
1.4624572551945572,0.6246246246246245,1.295764046142052,1.2182201935955685,0.5402724130483583,0.818492035948122,0.1953880927497936,0.9999999999999998,0.0,0.0,0.0,NAVIGATE,-1,0
1.4772794223358048,0.6326326326326326,1.307895871902655,1.2211162685637158,0.5402724130483657,0.818492035948107,0.19538809274980856,0.9999999999999944,0.0,0.0,0.0,NAVIGATE,-1,0
1.4919671903207634,0.6406406406406406,1.3198656118920398,1.2240020372152505,0.5452161292450184,0.8149461512220699,0.19647428080903184,1.0000000000000058,0.0,0.0,0.0,NAVIGATE,-1,0
1.5065659534784255,0.6486486486486487,1.3317276370599966,1.2268809349890428,0.548540168884451,0.8125363114567116,0.19720148499576037,0.9999999999999967,0.0,0.0,0.0,NAVIGATE,-1,0
1.521076176730812,0.6566566566566565,1.3434822041760646,1.2297529618850938,0.5518873051584987,0.8100886465778235,0.1979312686025382,1.0000000000000049,0.0,0.0,0.0,NAVIGATE,-1,0
1.5354983278231438,0.6646646646646646,1.3551295700097825,1.232618117903403,0.5552575310534595,0.8076025385638134,0.19866356966906912,0.9999999999999781,0.0,0.0,0.0,NAVIGATE,-1,0
1.5498328773614136,0.6726726726726726,1.3666699913306883,1.2354764030439704,0.5586508307518536,0.8050773615240323,0.19939832311691857,1.0000000000000362,0.0,0.0,0.0,NAVIGATE,-1,0
1.5640369390218072,0.6806806806806807,1.3780505094214535,1.2383243818679253,0.5637829657088496,0.8012157622842785,0.2005045382121997,0.9999999999999654,0.0,0.0,0.0,NAVIGATE,-1,0
1.5782410006821999,0.6886886886886886,1.3894310275122186,1.2411723606918799,0.5637829657088771,0.8012157622843287,0.2005045382121966,1.0000000000000204,0.0,0.0,0.0,NAVIGATE,-1,0
1.5923155983701567,0.6966966966966966,1.4006521559119203,1.2440100331992219,0.5689688746741401,0.7972610406692647,0.20161659823286596,0.9999999999999947,0.0,0.0,0.0,NAVIGATE,-1,0
1.6063045062946484,0.7047047047047046,1.4117673668769646,1.2468408348288227,0.5724541223112609,0.7945731736202124,0.20236044478101528,1.0000000000000113,0.0,0.0,0.0,NAVIGATE,-1,0
1.6202082099362758,0.7127127127127127,1.4227769171768898,1.2496647655806814,0.5759622194501001,0.7918429926083047,0.20310636824881143,0.9999999999999913,0.0,0.0,0.0,NAVIGATE,-1,0
1.6340271978658625,0.7207207207207208,1.4336810635812345,1.2524818254547982,0.5794930894224726,0.7890698262351549,0.203854282851313,1.000000000000001,0.0,0.0,0.0,NAVIGATE,-1,0
1.6477619617831802,0.7287287287287287,1.4444800628595371,1.2552920144511734,0.5830466439915197,0.786252995924196,0.2046040990068938,0.9999999999999852,0.0,0.0,0.0,NAVIGATE,-1,0
1.6614129965557487,0.7367367367367368,1.4551741717813365,1.2580953325698068,0.5866227829189927,0.7833918160760225,0.20535572323546844,1.0000000000000373,0.0,0.0,0.0,NAVIGATE,-1,0
1.6749808002576927,0.7447447447447446,1.465763647116171,1.2608917798106984,0.5902213935229945,0.7804855942393466,0.2061090580556528,0.99999999999998,0.0,0.0,0.0,NAVIGATE,-1,0
1.6884658742086185,0.7527527527527529,1.4762487456335796,1.2636813561738482,0.5938423502274153,0.7775336312997151,0.20686400188100487,0.9999999999999828,0.0,0.0,0.0,NAVIGATE,-1,0
1.7018687230124916,0.7607607607607607,1.4866297241031003,1.2664640616592566,0.597485514101577,0.7745352216851795,0.20762044891562467,1.0000000000000306,0.0,0.0,0.0,NAVIGATE,-1,0
1.7151898545964843,0.7687687687687687,1.4969068392942715,1.2692398962669227,0.601150732392038,0.7714896535907341,0.20837828904877936,0.9999999999999656,0.0,0.0,0.0,NAVIGATE,-1,0
1.7284297802497517,0.7767767767767767,1.5070803479766333,1.272008859996848,0.6048378380457008,0.7683962092227565,0.20913740774986683,1.0000000000000169,0.0,0.0,0.0,NAVIGATE,-1,0
1.7415890146621131,0.7847847847847846,1.5171505069197224,1.2747709528490305,0.6085466492249294,0.7652541650621797,0.209897685961723,0.9999999999999946,0.0,0.0,0.0,NAVIGATE,-1,0
1.7546680759626043,0.7927927927927929,1.5271175728930786,1.277526174823472,0.6122769688148435,0.7620627921502174,0.21065899999551832,0.999999999999995,0.0,0.0,0.0,NAVIGATE,-1,0
1.7676674857578512,0.8008008008008006,1.5369818026662396,1.2802745259201713,0.6160285839235413,0.7588213563947991,0.21142122142377287,1.000000000000003,0.0,0.0,0.0,NAVIGATE,-1,0
1.7805877691702447,0.8088088088088087,1.546743453008744,1.2830160061391291,0.6198012653752226,0.7555291189000314,0.21218421697530948,1.0000000000000049,0.0,0.0,0.0,NAVIGATE,-1,0
1.793390379484836,0.8168168168168167,1.5563517477443416,1.285747180041474,0.625498067287202,0.7504949771568736,0.21332945666806977,1.0000000000000075,0.0,0.0,0.0,NAVIGATE,-1,0
1.8061929897994276,0.8248248248248248,1.5659600424799391,1.288478353943819,0.6254980672871913,0.7504949771568606,0.21332945666808342,0.999999999999994,0.0,0.0,0.0,NAVIGATE,-1,0
1.818879080522255,0.8328328328328328,1.5754154951477068,1.2911992215295518,0.631243160952521,0.7453401425510454,0.21447644078698863,0.9999999999999988,0.0,0.0,0.0,NAVIGATE,-1,0
1.8314881812631971,0.8408408408408409,1.5847693954629722,1.2939132182375424,0.635097472257146,0.7418372259405465,0.21524109956375584,0.9999999999999981,0.0,0.0,0.0,NAVIGATE,-1,0
1.844020835285763,0.8488488488488488,1.5940220001952743,1.296620344067791,0.6389714416107707,0.7382797542836597,0.21600578978517412,1.000000000000002,0.0,0.0,0.0,NAVIGATE,-1,0
1.8564775895914563,0.8568568568568569,1.603173566114151,1.299320599020298,0.6428647311722325,0.7346669681599266,0.2167703469332216,0.9999999999999973,0.0,0.0,0.0,NAVIGATE,-1,0
1.8688589949552397,0.8648648648648649,1.6122243499891422,1.302013983095064,0.6467769831227811,0.7309981063591864,0.21753460093023125,0.9999999999999988,0.0,0.0,0.0,NAVIGATE,-1,0
1.8811284412315281,0.872872872872873,1.621124474337381,1.304697060853217,0.6526788436642063,0.7253892431509991,0.2186796125704571,0.9999999999999949,0.0,0.0,0.0,NAVIGATE,-1,0
1.8933978875078166,0.8808808808808811,1.6300245986856194,1.3073801386113697,0.6526788436642154,0.725389243150981,0.2186796125704571,0.9999999999999878,0.0,0.0,0.0,NAVIGATE,-1,0
1.9055565889493908,0.8888888888888887,1.6387745770461821,1.3100529100529097,0.6586236241171124,0.7196474395402016,0.2198237578563264,1.000000000000002,0.0,0.0,0.0,NAVIGATE,-1,0
1.9176421829709054,0.8968968968968969,1.6474248004410137,1.3127188106167083,0.662607728983156,0.7157466467459196,0.2205849839943967,1.000000000000026,0.0,0.0,0.0,NAVIGATE,-1,0
1.9296552397238833,0.9049049049049049,1.6559755256396513,1.315377840302765,0.6666086885856873,0.71178596542616,0.2213449699550901,1.0,0.0,0.0,0.0,NAVIGATE,-1,0
1.9415963333316286,0.912912912912913,1.6644270094116342,1.3180299991110802,0.6706260139200183,0.707764636105109,0.22210351040167733,0.999999999999999,0.0,0.0,0.0,NAVIGATE,-1,0
1.953466041919281,0.9209209209209209,1.6727795085265003,1.3206752870416534,0.6746591922516378,0.7036819019764949,0.22286039383687545,1.0000000000000084,0.0,0.0,0.0,NAVIGATE,-1,0
1.965264947642839,0.9289289289289289,1.681033279753789,1.3233137040944847,0.6787076865966483,0.6995370096744766,0.22361540253376108,1.0000000000000093,0.0,0.0,0.0,NAVIGATE,-1,0
1.976993636717065,0.9369369369369368,1.6891885798630384,1.325945250269574,0.6827709352109622,0.6953292100794726,0.22436831247170475,0.9999999999999979,0.0,0.0,0.0,NAVIGATE,-1,0
1.9886526994422116,0.9449449449449451,1.6972456656237873,1.3285699255669225,0.6868483510888437,0.6910577591602837,0.22511889327840162,0.9999999999999942,0.0,0.0,0.0,NAVIGATE,-1,0
2.0002427302294756,0.9529529529529528,1.7052047938055737,1.3311877299865287,0.6909393214733716,0.6867219188522256,0.22586690817791064,1.000000000000007,0.0,0.0,0.0,NAVIGATE,-1,0
2.0117643276251194,0.9609609609609611,1.713066221177937,1.3337986635283932,0.6950432073799128,0.6823209579720053,0.22661211394625386,0.9999999999999907,0.0,0.0,0.0,NAVIGATE,-1,0
2.02321809433315,0.9689689689689689,1.7208302045104151,1.3364027261925155,0.6991593431349562,0.6778541531699244,0.22735426087354782,0.999999999999988,0.0,0.0,0.0,NAVIGATE,-1,0
2.0346046372365025,0.9769769769769768,1.7284970005725466,1.3389999179788967,0.7032870359317088,0.673320789918972,0.2280930927346283,0.9999999999999825,0.0,0.0,0.0,NAVIGATE,-1,0
2.045891512916251,0.9849849849849849,1.736018529268236,1.341586803448665,0.7094973166379875,0.6663959902725717,0.22919411386890015,1.0000000000000082,0.0,0.0,0.0,NAVIGATE,-1,0
2.057129101458983,0.992992992992993,1.7434676810502427,1.3441685357601272,0.7126091133837795,0.6628781391737643,0.22974077593646866,0.9999999999999897,0.0,0.0,0.0,NAVIGATE,-1,0
2.0683666900017155,1.0010010010010013,1.7509168328322493,1.3467502680715895,0.7126091133837894,0.6628781391737445,0.22974077593648842,0.9999999999999881,0.0,0.0,0.0,NAVIGATE,-1,0
2.0794904907433382,1.0090090090090087,1.75819744750838,1.3493199763470027,0.7198985485278611,0.654507829224968,0.23100991604407087,0.9999999999999948,0.0,0.0,0.0,NAVIGATE,-1,0
2.090550165403069,1.0170170170170167,1.7653821587618581,1.3518828137446752,0.7240726562387919,0.6496313385816318,0.23172810019484785,0.9999999999999879,0.0,0.0,0.0,NAVIGATE,-1,0
2.1015463462862423,1.025025025025025,1.772471223362222,1.3544387802646058,0.7282535721345172,0.6446842477111062,0.23244129458090593,0.9999999999999835,0.0,0.0,0.0,NAVIGATE,-1,0
2.1124796699754764,1.033033033033033,1.7794648980790084,1.3569878759067946,0.7324404029026765,0.639665934675748,0.23314919732037145,0.9999999999999835,0.0,0.0,0.0,NAVIGATE,-1,0
2.1233507773364657,1.0410410410410413,1.7863634396817574,1.359530100671242,0.7366322254110764,0.6345757956088446,0.2338515001305235,0.9999999999999846,0.0,0.0,0.0,NAVIGATE,-1,0
2.1341603135214013,1.0490490490490487,1.7931671049400055,1.3620654545579465,0.7408280865156353,0.6294132460308401,0.2345478883948672,0.9999999999999938,0.0,0.0,0.0,NAVIGATE,-1,0
2.1449089279699427,1.0570570570570568,1.799876150623294,1.36459393756691,0.7450270029077818,0.6241777221992563,0.23523804124416292,0.9999999999999971,0.0,0.0,0.0,NAVIGATE,-1,0
2.155597274407601,1.065065065065065,1.8064908335011611,1.367115549698132,0.7492279610056177,0.618868682489706,0.2359216316508564,0.9999999999999911,0.0,0.0,0.0,NAVIGATE,-1,0
2.1662260108414615,1.073073073073073,1.8130114103431438,1.369630290951612,0.7534299168898788,0.6134856088076179,0.23659832653942628,1.0,0.0,0.0,0.0,NAVIGATE,-1,0
2.1767957995531293,1.0810810810810814,1.8194381379187818,1.3721381613273507,0.7576317962882618,0.6080280080285475,0.23726778691141062,0.9999999999999901,0.0,0.0,0.0,NAVIGATE,-1,0
2.1873073070887776,1.0890890890890887,1.8257712729976119,1.3746391608253465,0.7618324946111986,0.6024954134649179,0.2379296679866398,1.0000000000000084,0.0,0.0,0.0,NAVIGATE,-1,0
2.197761204246224,1.0970970970970968,1.832011072349175,1.3771332894456012,0.766030877040345,0.5968873863579698,0.238583619361334,1.000000000000001,0.0,0.0,0.0,NAVIGATE,-1,0
2.2081581660588876,1.1051051051051048,1.8381577927430088,1.3796205471881144,0.7702257786745026,0.5912035173916881,0.23922928518249287,0.9999999999999871,0.0,0.0,0.0,NAVIGATE,-1,0
2.218498871776562,1.113113113113113,1.844211690948652,1.3821009340528858,0.7744160047336787,0.5854434282271227,0.23986630434051462,0.9999999999999878,0.0,0.0,0.0,NAVIGATE,-1,0
2.2287840048428706,1.1211211211211214,1.850173023735643,1.3845744500399153,0.7786003308251326,0.5796067730537064,0.24049431067956253,0.9999999999999873,0.0,0.0,0.0,NAVIGATE,-1,0
2.2390142528693096,1.129129129129129,1.8560420478735193,1.387041095149203,0.7827775032738039,0.5736932401549255,0.24111293322633648,1.0000000000000173,0.0,0.0,0.0,NAVIGATE,-1,0
2.249190307605782,1.137137137137137,1.8618190201318212,1.389500869380749,0.7869462395191364,0.5677025534853163,0.2417217964374484,1.0000000000000029,0.0,0.0,0.0,NAVIGATE,-1,0
2.259286396336827,1.145145145145145,1.8674584281098374,1.3919503372956825,0.7931792421142362,0.5585735355787343,0.24261552965572752,0.9999999999999855,0.0,0.0,0.0,NAVIGATE,-1,0
2.269382485067871,1.153153153153153,1.8730978360878536,1.394399805210616,0.7931792421142491,0.5585735355787589,0.24261552965571623,1.0000000000000067,0.0,0.0,0.0,NAVIGATE,-1,0
2.27940015129911,1.1611611611611614,1.8786001933246617,1.396838966808937,0.7993885824461178,0.5492653787615248,0.24348601181328694,0.9999999999999974,0.0,0.0,0.0,NAVIGATE,-1,0
2.2893664319058358,1.1691691691691692,1.8840115257600483,1.3992712575295154,0.8035101884050504,0.5429640854919088,0.24405200059659674,0.9999999999999928,0.0,0.0,0.0,NAVIGATE,-1,0
2.2992820387577724,1.1771771771771768,1.8893320901635522,1.4016966773723527,0.8076165309482372,0.5365848488098109,0.24460629380072488,1.0000000000000195,0.0,0.0,0.0,NAVIGATE,-1,0
2.3091476876067967,1.1851851851851851,1.894562143304713,1.4041152263374481,0.8117061665741583,0.5301276399755621,0.24514849475253767,1.0000000000000047,0.0,0.0,0.0,NAVIGATE,-1,0
2.3189640980301127,1.1931931931931932,1.8997019419530694,1.4065269044248023,0.8157776277352199,0.5235924769555514,0.24567820449173183,1.0000000000000169,0.0,0.0,0.0,NAVIGATE,-1,0
2.3287319933691686,1.2012012012012012,1.9047517428781584,1.4089317116344144,0.8198294238461895,0.5169794259463366,0.2461950221760418,1.0000000000000202,0.0,0.0,0.0,NAVIGATE,-1,0
2.33845210066423,1.209209209209209,1.9097118028495186,1.411329647966284,0.823860042375921,0.5102886028717255,0.24669854550761072,1.0000000000000013,0.0,0.0,0.0,NAVIGATE,-1,0
2.3481251505845417,1.2172172172172173,1.9145823786366907,1.4137207134204128,0.8278679500240004,0.5035201748462748,0.24718837117836004,0.9999999999999873,0.0,0.0,0.0,NAVIGATE,-1,0
2.357751877353999,1.225225225225225,1.9193637270092105,1.4161049079967996,0.8318515939825468,0.49667436160020506,0.2476640953341507,0.9999999999999792,0.0,0.0,0.0,NAVIGATE,-1,0
2.3673330186722943,1.2332332332332332,1.9240561047366191,1.4184822316954446,0.835809403282366,0.48975143686154987,0.24812531405894084,1.0000000000000127,0.0,0.0,0.0,NAVIGATE,-1,0
2.3768471877788038,1.2412412412412412,1.9286155400354354,1.420849249077477,0.8416928392127341,0.4792257997281962,0.24878865989598398,0.999999999999981,0.0,0.0,0.0,NAVIGATE,-1,0
2.386361356885313,1.249249249249249,1.9331749753342518,1.4232162664595094,0.8416928392127501,0.47922579972821855,0.24878865989601892,1.000000000000014,0.0,0.0,0.0,NAVIGATE,-1,0
2.3957888216008127,1.2572572572572571,1.937558009960075,1.4255695420860583,0.8494338880782955,0.46492188070638835,0.24961913913927328,1.0000000000000036,0.0,0.0,0.0,NAVIGATE,-1,0
2.4052162863163127,1.2652652652652652,1.9419410445858984,1.4279228177126073,0.8494338880782955,0.46492188070638835,0.24961913913927328,1.0000000000000036,0.0,0.0,0.0,NAVIGATE,-1,0
2.414580681423258,1.2732732732732732,1.9461924206308236,1.4302657870225435,0.8551548622792029,0.4539936639123626,0.2501997494956604,1.0000000000000124,0.0,0.0,0.0,NAVIGATE,-1,0
2.4239039852676085,1.2812812812812813,1.9503563666478676,1.4326018854547384,0.8589238473506039,0.44661700257330944,0.25056551531467797,1.0000000000000204,0.0,0.0,0.0,NAVIGATE,-1,0
2.4331869572799993,1.2892892892892893,1.9544331394065686,1.4349311130091909,0.86265562336276,0.43916676181500547,0.25091399083648963,0.9999999999999819,0.0,0.0,0.0,NAVIGATE,-1,0
2.442430359567286,1.297297297297297,1.9584229956764658,1.4372534696859014,0.866348532620045,0.43164368983321677,0.2512447910986948,0.999999999999983,0.0,0.0,0.0,NAVIGATE,-1,0
2.4516349567911964,1.3053053053053052,1.9623261922270978,1.4395689554848707,0.8700009151086237,0.4240485982909547,0.25155753615753235,1.000000000000007,0.0,0.0,0.0,NAVIGATE,-1,0
2.460801516042232,1.313313313313313,1.9661429858280035,1.4418775704060987,0.8736111106359804,0.41638236293235625,0.25185185171492436,0.9999999999999999,0.0,0.0,0.0,NAVIGATE,-1,0
2.4699308067088586,1.3213213213213213,1.9698736332487212,1.4441793144495847,0.8771774610356929,0.40864592408648615,0.25212736975287886,1.0000000000000138,0.0,0.0,0.0,NAVIGATE,-1,0
2.479023600342012,1.3293293293293291,1.9735183912587884,1.4464741876153284,0.8806983124317015,0.4008402870574301,0.2523837291738784,1.0000000000000218,0.0,0.0,0.0,NAVIGATE,-1,0
2.488080670514986,1.3373373373373374,1.9770775166277446,1.448762189903331,0.8841720175586065,0.39296652239446267,0.25262057644533364,1.0000000000000135,0.0,0.0,0.0,NAVIGATE,-1,0
2.4971027926787435,1.345345345345345,1.9805512661251288,1.4510433213135912,0.8875969381323846,0.38502576603744715,0.2528375662461806,0.9999999999999994,0.0,0.0,0.0,NAVIGATE,-1,0
2.5060907440127456,1.3533533533533533,1.983939896520479,1.4533175818461104,0.8909714472655602,0.37701921933320526,0.25303436211492647,1.000000000000007,0.0,0.0,0.0,NAVIGATE,-1,0
2.5150453032713607,1.3613613613613613,1.9872436645833338,1.4555849715008873,0.8942939319211737,0.3689481489193541,0.2532106370947819,0.999999999999998,0.0,0.0,0.0,NAVIGATE,-1,0
2.5239672506259687,1.3693693693693694,1.9904628270832316,1.457845490277922,0.8975627953993738,0.3608138864701095,0.25336607437694536,0.9999999999999934,0.0,0.0,0.0,NAVIGATE,-1,0
2.5328417568311474,1.3773773773773774,1.9935555947777717,1.460095702738345,0.9023609677950287,0.34850025714503985,0.25355917370476183,0.9999999999999906,0.0,0.0,0.0,NAVIGATE,-1,0
2.541693216346297,1.3853853853853852,1.9965854218391712,1.4623407620404616,0.9047104598176132,0.34229688970659977,0.25363718811277897,0.9999999999999831,0.0,0.0,0.0,NAVIGATE,-1,0
2.5505446758614463,1.3933933933933933,1.9996152489005707,1.464585821342578,0.9047104598176383,0.34229688970659977,0.2536371881127539,0.9999999999999996,0.0,0.0,0.0,NAVIGATE,-1,0
2.5593439998952925,1.4014014014014013,2.0024985568440274,1.4668188566086464,0.9100708164860858,0.3276737999835203,0.2537735009506606,1.0000000000000229,0.0,0.0,0.0,NAVIGATE,-1,0
2.568114628323076,1.4094094094094094,2.00529854307222,1.4690450209969725,0.9130483720688181,0.3192457930748424,0.2538203968685018,0.9999999999999938,0.0,0.0,0.0,NAVIGATE,-1,0
2.57685734627561,1.4174174174174172,2.008015464354687,1.4712643145075572,0.9159632109242033,0.3107639177219061,0.2538448023410642,1.000000000000009,0.0,0.0,0.0,NAVIGATE,-1,0
2.5855729390850133,1.4254254254254255,2.0106495774609674,1.4734767371404007,0.9188139215692044,0.30222994165564804,0.2538464888419843,0.99999999999998,0.0,0.0,0.0,NAVIGATE,-1,0
2.5942621920970836,1.4334334334334333,2.0132011391605995,1.475682288895502,0.9215991290486997,0.29364569038186633,0.25382524274956847,1.000000000000021,0.0,0.0,0.0,NAVIGATE,-1,0
2.6029134165055843,1.4414414414414414,2.0156293872893363,1.4778775343339905,0.9256502467025863,0.28068259636760606,0.2537496815284964,1.0000000000000164,0.0,0.0,0.0,NAVIGATE,-1,0
2.611564640914085,1.4494494494494492,2.0180576354180726,1.480072779772479,0.9256502467025607,0.2806825963675547,0.2537496815284964,0.9999999999999782,0.0,0.0,0.0,NAVIGATE,-1,0
2.6201795838709603,1.4574574574574575,2.0203630835149915,1.4822577188943549,0.9295485818182093,0.2676103728671801,0.25362200687957415,0.999999999999989,0.0,0.0,0.0,NAVIGATE,-1,0
2.6287713246992324,1.4654654654654655,2.0225870072834162,1.48443578713849,0.9320588420983104,0.25884437308754255,0.2535072097342424,0.9999999999999836,0.0,0.0,0.0,NAVIGATE,-1,0
2.6373406459029285,1.4734734734734733,2.024729663492885,1.486606984504882,0.9344973560512354,0.2500380320140708,0.25336865252005686,1.0000000000000242,0.0,0.0,0.0,NAVIGATE,-1,0
2.6458778098565525,1.4814814814814814,2.0267509319029977,1.4887678755546618,0.9380173616800048,0.2367611095549857,0.2531157960088844,1.000000000000018,0.0,0.0,0.0,NAVIGATE,-1,0
2.6544149738101765,1.4894894894894892,2.0287722003131106,1.4909287666044417,0.9380173616799788,0.2367611095549857,0.2531157960088844,0.9999999999999937,0.0,0.0,0.0,NAVIGATE,-1,0
2.6629217184798835,1.4974974974974975,2.030672594462945,1.4930793513376095,0.9413716196896476,0.2233985177199443,0.25280936676354426,0.9999999999999815,0.0,0.0,0.0,NAVIGATE,-1,0
2.6714091598333867,1.5055055055055055,2.032492748131978,1.495223065193035,0.9435126175808832,0.21445257683951052,0.2525748062507226,1.000000000000013,0.0,0.0,0.0,NAVIGATE,-1,0
2.6798780724937887,1.5135135135135136,2.034232918089748,1.4973599081707185,0.9455768797157331,0.20547737679553754,0.2523160957456522,1.000000000000023,0.0,0.0,0.0,NAVIGATE,-1,0
2.6883292288887675,1.5215215215215216,2.0358933611057948,1.4994898802706609,0.947563579910321,0.19647524414922504,0.25203321301779413,1.0000000000000169,0.0,0.0,0.0,NAVIGATE,-1,0
2.6967633990429114,1.5295295295295297,2.037474333949655,1.5016129814928614,0.9494719529785033,0.18744853553653978,0.25172615484374106,1.0000000000000109,0.0,0.0,0.0,NAVIGATE,-1,0
2.7051813503700695,1.5375375375375375,2.038976093390869,1.5037292118373196,0.9513012960971077,0.17839963464377903,0.2513949371067023,0.9999999999999768,0.0,0.0,0.0,NAVIGATE,-1,0
2.713583847465987,1.5455455455455458,2.0403988961989743,1.5058385713040368,0.953050970038305,0.1693309491051681,0.2510395948535408,1.0000000000000204,0.0,0.0,0.0,NAVIGATE,-1,0
2.7219645951560727,1.5535535535535536,2.0417037775964944,1.507937624454141,0.9555242925975691,0.1556998785518518,0.2504613225127065,0.99999999999998,0.0,0.0,0.0,NAVIGATE,-1,0
2.7303453428461584,1.5615615615615615,2.0430086589940144,1.510036677604245,0.9555242925975691,0.1556998785518518,0.2504613225127065,0.99999999999998,0.0,0.0,0.0,NAVIGATE,-1,0
2.7387060335452404,1.5695695695695693,2.044196132520026,1.5121254244377362,0.9578165604053541,0.14203055330607262,0.2498294589130614,0.9999999999999828,0.0,0.0,0.0,NAVIGATE,-1,0
2.7470542960935296,1.5775775775775776,2.0453056764910835,1.5142073003934864,0.9592424725129673,0.1329071725571143,0.24937835192746904,0.999999999999989,0.0,0.0,0.0,NAVIGATE,-1,0
2.755390877915466,1.5855855855855856,2.0463375476767256,1.5162823054714947,0.9605865064427641,0.12377629197219418,0.24890358210702856,1.0000000000000053,0.0,0.0,0.0,NAVIGATE,-1,0
2.763716522394887,1.5935935935935932,2.04729200284649,1.5183504396717606,0.961848422401582,0.11464039476143847,0.24840529827785496,0.9999999999999903,0.0,0.0,0.0,NAVIGATE,-1,0
2.772031968677461,1.6016016016016015,2.048169298769917,1.5204117029942854,0.9630280487518658,0.10550196509182935,0.24788366763241146,0.9999999999999797,0.0,0.0,0.0,NAVIGATE,-1,0
2.780337951475595,1.6096096096096093,2.0489696922165432,1.522466095439068,0.9641252820565547,0.09636348474091673,0.24733887544821392,1.0000000000000155,0.0,0.0,0.0,NAVIGATE,-1,0
2.7886352008760924,1.6176176176176174,2.0496934399559086,1.524513617006109,0.9651400869700293,0.08722742976991384,0.24677112476796068,1.0000000000000127,0.0,0.0,0.0,NAVIGATE,-1,0
2.796924442150789,1.6256256256256258,2.050340798757551,1.5265542676954087,0.9660724959778113,0.07809626722032546,0.24618063604069382,0.9999999999999736,0.0,0.0,0.0,NAVIGATE,-1,0
2.8052063955704227,1.6336336336336335,2.0509120253910087,1.5285880475069658,0.9669226089853834,0.06897245184976206,0.24556764672639464,1.0000000000000038,0.0,0.0,0.0,NAVIGATE,-1,0
2.8134787581017595,1.6416416416416415,2.0513695673112684,1.530611521001911,0.9680436486762607,0.05530970367007964,0.24460648179766753,0.9999999999999761,0.0,0.0,0.0,NAVIGATE,-1,0
2.8217511206330963,1.6496496496496496,2.051827109231528,1.532634994496856,0.9680436486762607,0.05530970367007964,0.24460648179766753,0.9999999999999761,0.0,0.0,0.0,NAVIGATE,-1,0
2.830015479383479,1.6576576576576576,2.052171479977665,1.5346481616751884,0.9689811696082458,0.04166938495029314,0.24359629574878833,1.0000000000000153,0.0,0.0,0.0,NAVIGATE,-1,0
2.838275377754261,1.6656656656656659,2.0524407456337728,1.5366544579757793,0.9695044234848273,0.03259914880552441,0.2428960031382273,1.0000000000000089,0.0,0.0,0.0,NAVIGATE,-1,0
2.8465315083478404,1.6736736736736735,2.052635162969388,1.5386538833986276,0.9699468676325589,0.02354823890099585,0.2421746361913523,0.9999999999999825,0.0,0.0,0.0,NAVIGATE,-1,0
2.854784557729143,1.6816816816816815,2.0527549887540517,1.540646437943735,0.9703089898081131,0.01451897100421911,0.24143252427661235,1.0000000000000195,0.0,0.0,0.0,NAVIGATE,-1,0
2.863035206268169,1.6896896896896894,2.0528004797573,1.5426321216111,0.9705913383813636,0.005513627569175669,0.24067001011770114,0.9999999999999762,0.0,0.0,0.0,NAVIGATE,-1,0
2.871284127987386,1.6976976976976976,2.0527718927486736,1.5446109344007242,0.9707945208587117,-0.003465544903877004,0.23988744916977106,0.9999999999999778,0.0,0.0,0.0,NAVIGATE,-1,0
2.8795319904141015,1.7057057057057057,2.0526694844977103,1.5465828763126057,0.9709192022977592,-0.012416338399583164,0.23908520897418484,0.9999999999999998,0.0,0.0,0.0,NAVIGATE,-1,0
2.8877794544379722,1.7137137137137137,2.052493511773947,1.5485479473467456,0.970966103620499,-0.021336585798256338,0.23826366849886937,1.0000000000000193,0.0,0.0,0.0,NAVIGATE,-1,0
2.8960271741737618,1.7217217217217216,2.0522442313469242,1.550506147503144,0.9709359998325946,-0.030224163163661992,0.23742321746230127,1.0000000000000073,0.0,0.0,0.0,NAVIGATE,-1,0
2.9042757968294652,1.7297297297297298,2.0519218999861812,1.5524574767818007,0.9708297181555722,-0.03907699190483946,0.23656425564665165,1.0000000000000064,0.0,0.0,0.0,NAVIGATE,-1,0
2.9125259625799003,1.7377377377377374,2.051526774461254,1.5544019351827156,0.9706481360796115,-0.0478930408042054,0.2356871922012501,1.000000000000003,0.0,0.0,0.0,NAVIGATE,-1,0
2.920779625659905,1.7457457457457455,2.0510229712291306,1.5563360872670178,0.970236842767231,-0.061039956106779536,0.23433862826165697,0.9999999999999986,0.0,0.0,0.0,NAVIGATE,-1,0
2.929035560806139,1.7537537537537535,2.0504650859129465,1.5582650861930136,0.9699698297243307,-0.06757384915245108,0.23364996112835196,1.0000000000000027,0.0,0.0,0.0,NAVIGATE,-1,0
2.9372914959523735,1.7617617617617616,2.0499072005967625,1.5601940851190097,0.9699698297243307,-0.06757384915245108,0.23364996112837885,1.000000000000009,0.0,0.0,0.0,NAVIGATE,-1,0
2.9455540910551687,1.7697697697697699,2.0492234661104907,1.5621110600089576,0.9691879982475655,-0.08275057385306016,0.23200639340289003,0.9999999999999751,0.0,0.0,0.0,NAVIGATE,-1,0
2.953823858594524,1.777777777777778,2.048432594534252,1.564017728582293,0.9683474136242276,-0.09563407586427308,0.2305589080057774,0.9999999999999805,0.0,0.0,0.0,NAVIGATE,-1,0
2.9620936261338784,1.785785785785786,2.047641722958014,1.565924397155628,0.9683474136242796,-0.09563407586422451,0.23055890800576295,1.0000000000000229,0.0,0.0,0.0,NAVIGATE,-1,0
2.9703719037064324,1.7937937937937936,2.046744227830887,1.5678207594123506,0.9673519567110783,-0.10841568421220518,0.22907691124174767,1.000000000000006,0.0,0.0,0.0,NAVIGATE,-1,0
2.978656579270642,1.8018018018018016,2.045775992695886,1.5697102507913314,0.9666049015369033,-0.11687061581312205,0.2280706545882856,1.0000000000000169,0.0,0.0,0.0,NAVIGATE,-1,0
2.9869482249497046,1.8098098098098099,2.0447372743225496,1.5715928712925709,0.9657923550965958,-0.12527288472530218,0.22705028339468347,1.0000000000000169,0.0,0.0,0.0,NAVIGATE,-1,0
2.995247404883244,1.8178178178178175,2.043628329480415,1.573468620916068,0.9649155786639924,-0.1336210144875994,0.22601626166902494,1.0000000000000018,0.0,0.0,0.0,NAVIGATE,-1,0
3.0035546751640623,1.8258258258258258,2.0424494149390218,1.5753374996618237,0.9639758593745067,-0.1419135891262988,0.2249690551264416,1.0000000000000053,0.0,0.0,0.0,NAVIGATE,-1,0
3.0118705837805924,1.8338338338338336,2.041200787467909,1.5771995075298373,0.9629745079316738,-0.1501492535200281,0.2239091305443601,1.000000000000001,0.0,0.0,0.0,NAVIGATE,-1,0
3.02019567056501,1.8418418418418416,2.0398827038366147,1.5790546445201095,0.961912856331659,-0.15832671363395032,0.22283695513475232,0.9999999999999927,0.0,0.0,0.0,NAVIGATE,-1,0
3.0285355133604557,1.8498498498498497,2.038460949504125,1.580899475193769,0.9602109061793214,-0.17047735399356906,0.2212068882961467,1.0000000000000129,0.0,0.0,0.0,NAVIGATE,-1,0
3.036875356155901,1.8578578578578577,2.0370391951716353,1.5827443058674286,0.9602109061793725,-0.17047735399352487,0.22120688829615848,1.0000000000000573,0.0,0.0,0.0,NAVIGATE,-1,0
3.0452311342129885,1.8658658658658658,2.0355142836770286,1.5845788302244757,0.958379692866004,-0.18249784570490138,0.2195515898715054,0.9999999999999859,0.0,0.0,0.0,NAVIGATE,-1,0
3.0535981673604,1.8738738738738734,2.033920943100393,1.5864064837037803,0.9570905082986615,-0.1904307714053325,0.21843507096301637,1.000000000000019,0.0,0.0,0.0,NAVIGATE,-1,0
3.061976954063689,1.8818818818818817,2.032259430211269,1.5882272663053438,0.9557479252771345,-0.1982999386381001,0.21730862307889043,0.9999999999999323,0.0,0.0,0.0,NAVIGATE,-1,0
3.0703679844354483,1.8898898898898895,2.030530001779196,1.5900411780291657,0.9543533574803126,-0.20610441810502086,0.21617270388231358,1.0000000000000724,0.0,0.0,0.0,NAVIGATE,-1,0
3.078778273977532,1.8978978978978975,2.028699213571775,1.591844783436375,0.9521679328562147,-0.21768432564184056,0.21445223712980568,0.9999999999998991,0.0,0.0,0.0,NAVIGATE,-1,0
3.087188563519615,1.9059059059059056,2.0268684253643534,1.593648388843584,0.9521679328563153,-0.21768432564191634,0.21445223712980194,1.0000000000000107,0.0,0.0,0.0,NAVIGATE,-1,0
3.0956191818545125,1.9139139139139134,2.024936790920659,1.59544168793418,0.9498719654831856,-0.2291213250276762,0.21271264091897346,1.0000000000000262,0.0,0.0,0.0,NAVIGATE,-1,0
3.104063920561646,1.9219219219219217,2.0229382680121715,1.5972281161470347,0.9482836930458977,-0.23665893970163218,0.21154333778802822,0.9999999999999835,0.0,0.0,0.0,NAVIGATE,-1,0
3.1125232278679595,1.92992992992993,2.0208731134084252,1.5990076734821477,0.9466505610963668,-0.24412809807783317,0.21036679135474526,1.0000000000000286,0.0,0.0,0.0,NAVIGATE,-1,0
3.120997543631928,1.9379379379379378,2.0187415838789606,1.600780359939519,0.9449739933053656,-0.2515282164169016,0.20918343223750163,1.000000000000009,0.0,0.0,0.0,NAVIGATE,-1,0
3.1294872993567893,1.945945945945946,2.0165439361933157,1.6025461755191484,0.9432554089345223,-0.2588587654188126,0.20799368519619538,0.9999999999999394,0.0,0.0,0.0,NAVIGATE,-1,0
3.137992918207933,1.9539539539539537,2.014280427121029,1.6043051202210357,0.9414962212809318,-0.2661192691443406,0.20679796880985402,1.0000000000000362,0.0,0.0,0.0,NAVIGATE,-1,0
3.1465148150343256,1.9619619619619622,2.01195131343164,1.6060571940451818,0.9396978361915067,-0.27330930388357527,0.205596695177047,1.0000000000000238,0.0,0.0,0.0,NAVIGATE,-1,0
3.155053396393803,1.96996996996997,2.009556851894686,1.607802396991586,0.937861650649913,-0.28042849697702443,0.2043902696397212,0.9999999999999852,0.0,0.0,0.0,NAVIGATE,-1,0
3.1636177394452636,1.977977977977978,2.007064882125462,1.6095372936213774,0.9350405465883496,-0.29097033529017263,0.20257206178768233,1.0000000000000138,0.0,0.0,0.0,NAVIGATE,-1,0
3.1721820824967244,1.985985985985986,2.0045729123562386,1.611272190251169,0.9350405465883496,-0.29097033529017263,0.20257206178770826,1.000000000000019,0.0,0.0,0.0,NAVIGATE,-1,0
3.1807730743482088,1.9939939939939937,2.0019839478938217,1.6129967805643477,0.9321401005198207,-0.3013580395806714,0.20074402851175333,1.0000000000000673,0.0,0.0,0.0,NAVIGATE,-1,0
3.1893822946866965,2.002002002002002,1.999330662661996,1.6147144999997853,0.9301664602784603,-0.3081911169080135,0.19952090525067906,1.0000000000000098,0.0,0.0,0.0,NAVIGATE,-1,0
3.198010109119721,2.01001001001001,1.9966133134302977,1.6164253485574804,0.9281618270967834,-0.31495221099068066,0.19829454735912747,0.9999999999999594,0.0,0.0,0.0,NAVIGATE,-1,0
3.2066568751889744,2.018018018018018,1.993832156968267,1.6181293262374343,0.9261275191060145,-0.32164122861146005,0.19706531509080127,0.9999999999999938,0.0,0.0,0.0,NAVIGATE,-1,0
3.2153229424187626,2.026026026026026,1.9909874500454412,1.6198264330396464,0.9240648376788496,-0.3282581184055056,0.1958335606234954,1.0000000000000189,0.0,0.0,0.0,NAVIGATE,-1,0
3.2240086523671883,2.0340340340340335,1.9880794494313585,1.6215166689641158,0.9219750665815047,-0.3348028694660463,0.19459962795279065,1.0000000000000164,0.0,0.0,0.0,NAVIGATE,-1,0
3.232714338679938,2.042042042042042,1.98510841189556,1.6232000340108448,0.9198594711919241,-0.3412755099442722,0.1933638528031517,1.000000000000044,0.0,0.0,0.0,NAVIGATE,-1,0
3.2414403271465164,2.05005005005005,1.9820745942075817,1.6248765281798312,0.9177192977826432,-0.3476761056467299,0.19212656255592983,0.9999999999999507,0.0,0.0,0.0,NAVIGATE,-1,0
3.250197351195562,2.058058058058058,1.9789471198304127,1.6265427160322052,0.9144668283605596,-0.3571389503617789,0.19026873091157587,1.000000000000018,0.0,0.0,0.0,NAVIGATE,-1,0
3.258954375244608,2.066066066066066,1.9758196454532437,1.6282089038845795,0.9144668283605639,-0.35713895036176074,0.19026873091159158,1.0000000000000184,0.0,0.0,0.0,NAVIGATE,-1,0
3.267753862957515,2.0740740740740744,1.9725681513889484,1.62986134998147,0.9100538882805699,-0.36950947263964534,0.1877888975816969,0.9999999999999809,0.0,0.0,0.0,NAVIGATE,-1,0
3.276569557080117,2.0820820820820822,1.9692704709039037,1.6315086429200543,0.9083808826212256,-0.37406929496226277,0.18685913050917557,0.9999999999999631,0.0,0.0,0.0,NAVIGATE,-1,0
3.285385251202718,2.09009009009009,1.9659727904188589,1.6331559358586383,0.9083808826213172,-0.3740692949623256,0.18685913050916922,1.0000000000000686,0.0,0.0,0.0,NAVIGATE,-1,0
3.2942394618684236,2.098098098098098,1.9625676839781176,1.6347912047611746,0.9044293512265991,-0.3845748163560126,0.1846882759261702,1.0000000000000044,0.0,0.0,0.0,NAVIGATE,-1,0
3.30311604041922,2.1061061061061057,1.9591015947719672,1.636419602785969,0.9021503006120839,-0.39047581073221355,0.18344883847710725,1.0000000000000262,0.0,0.0,0.0,NAVIGATE,-1,0
3.3120152520704935,2.1141141141141135,1.9555747795699463,1.6380411299330213,0.8998558885676085,-0.3963064752501156,0.18221020137444446,0.999999999999943,0.0,0.0,0.0,NAVIGATE,-1,0
3.320937354776373,2.1221221221221223,1.9519874951415939,1.6396557862023324,0.8975471670743747,-0.4020671523976627,0.18097261626982852,0.9999999999999736,0.0,0.0,0.0,NAVIGATE,-1,0
3.3298942488478573,2.13013013013013,1.9483100204128212,1.6412601361550307,0.8940608143957555,-0.4105747706094311,0.17911900485749918,1.0000000000000646,0.0,0.0,0.0,NAVIGATE,-1,0
3.338851142919342,2.138138138138138,1.9446325456840485,1.642864486107729,0.8940608143957112,-0.4105747706094107,0.1791190048574903,1.000000000000015,0.0,0.0,0.0,NAVIGATE,-1,0
3.3478433950132036,2.146146146146146,1.940865394193932,1.6444585297438152,0.8905453188389733,-0.4189330382194431,0.1772685662554261,1.0000000000000182,0.0,0.0,0.0,NAVIGATE,-1,0
3.356859498855428,2.1541541541541536,1.9370388005556378,1.6460457025021584,0.8881894161981609,-0.42441765370684365,0.17603754194911694,0.9999999999999696,0.0,0.0,0.0,NAVIGATE,-1,0
3.3658996772197414,2.1621621621621623,1.933153021538705,1.6476260043827609,0.8858241159954204,-0.42983433073314853,0.1748087058592543,1.0000000000000344,0.0,0.0,0.0,NAVIGATE,-1,0
3.374964146075221,2.17017017017017,1.9292083139126717,1.6491994353856212,0.8834503307015892,-0.43518353793543924,0.17358226145916453,1.0000000000000153,0.0,0.0,0.0,NAVIGATE,-1,0
3.384053114665082,2.178178178178178,1.9252049344470765,1.65076599551074,0.8810689495550698,-0.44046576088523876,0.17235840454619428,0.999999999999998,0.0,0.0,0.0,NAVIGATE,-1,0
3.3931667855859726,2.186186186186186,1.9211431399114587,1.6523256847581171,0.8786808386565886,-0.445681500997288,0.17113732335911822,0.9999999999999825,0.0,0.0,0.0,NAVIGATE,-1,0
3.4023053548677096,2.1941941941941936,1.9170231870753551,1.6538785031277519,0.8762868410935015,-0.45083127446843463,0.16991919870191996,0.9999999999999816,0.0,0.0,0.0,NAVIGATE,-1,0
3.4114690120533693,2.2022022022022023,1.9128453327083061,1.6554244506196456,0.8738877770919374,-0.4559156112460153,0.16870420407182066,1.0000000000000109,0.0,0.0,0.0,NAVIGATE,-1,0
3.4206579402796486,2.21021021021021,1.9086098335798494,1.656963527233797,0.8714844441929328,-0.46093505402988066,0.16749250579080888,0.999999999999939,0.0,0.0,0.0,NAVIGATE,-1,0
3.429872316357434,2.218218218218218,1.9043169464595224,1.6584957329702068,0.8690776174541028,-0.4658901573028363,0.16628426314221223,1.0000000000000548,0.0,0.0,0.0,NAVIGATE,-1,0
3.4391123108524986,2.226226226226226,1.8999669281168674,1.6600210678288756,0.8666680496709442,-0.470781486393586,0.16507962850881994,1.0000000000000013,0.0,0.0,0.0,NAVIGATE,-1,0
3.4483780881662627,2.2342342342342336,1.8955600353214184,1.6615395318098014,0.864256471619722,-0.47560961657288015,0.16387874751427134,1.0000000000000098,0.0,0.0,0.0,NAVIGATE,-1,0
3.457669806616549,2.242242242242242,1.8910965248427172,1.6630511249129865,0.8618435923186333,-0.48037513217628214,0.1626817591678572,1.0000000000000078,0.0,0.0,0.0,NAVIGATE,-1,0
3.4669876185182806,2.25025025025025,1.8865766534503012,1.6645558471384294,0.8594300993047774,-0.4850786257636373,0.16148879600835803,0.9999999999999938,0.0,0.0,0.0,NAVIGATE,-1,0
3.4763316702640505,2.2582582582582584,1.8820006779137075,1.6660536984861303,0.8570166589278071,-0.48972069730513706,0.16029998425243588,1.000000000000071,0.0,0.0,0.0,NAVIGATE,-1,0
3.485702102404518,2.2662662662662663,1.8773688550024792,1.6675446789560904,0.8546039166565366,-0.4943019533992625,0.15911544394213106,0.9999999999999603,0.0,0.0,0.0,NAVIGATE,-1,0
3.4950990497285748,2.2742742742742736,1.8726814414861488,1.6690287885483073,0.8521924973982169,-0.49882300652365624,0.15793528909303275,1.0000000000000047,0.0,0.0,0.0,NAVIGATE,-1,0
3.5045226413432267,2.2822822822822824,1.8679386941342597,1.6705060272627836,0.8497830058295168,-0.503284474309667,0.15675962784502814,0.9999999999999591,0.0,0.0,0.0,NAVIGATE,-1,0
3.5139864128712492,2.29029029029029,1.863113459568106,1.671972959660647,0.8461751199609815,-0.5098638055521514,0.15500505200486808,1.0000000000000675,0.0,0.0,0.0,NAVIGATE,-1,0
3.5234501843992727,2.2982982982982985,1.8582882250019523,1.6734398920585103,0.846175119960949,-0.5098638055521035,0.1550050520048535,1.0000000000000133,0.0,0.0,0.0,NAVIGATE,-1,0
3.532954427899982,2.3063063063063067,1.8533810167606135,1.6748965181397615,0.8425718477657687,-0.5163176049701071,0.1532606020818501,0.9999999999999901,0.0,0.0,0.0,NAVIGATE,-1,0
3.5424857768857856,2.3143143143143137,1.8484195017618665,1.67634627334327,0.8401757211843014,-0.5205469872246605,0.15210388431561278,1.0000000000000646,0.0,0.0,0.0,NAVIGATE,-1,0
3.552044333239588,2.3223223223223224,1.8434039367752533,1.6777891576690371,0.837784254399797,-0.5247199264163057,0.1509521179098616,1.0000000000000149,0.0,0.0,0.0,NAVIGATE,-1,0
3.561630193633379,2.33033033033033,1.8383345785703102,1.6792251711170625,0.8353979381125329,-0.5288370575714239,0.1498053788635867,0.9999999999999678,0.0,0.0,0.0,NAVIGATE,-1,0
3.571243449604993,2.338338338338338,1.833211683916576,1.6806543136873464,0.8330172453177005,-0.5328990166142616,0.14866373833214205,1.0000000000000122,0.0,0.0,0.0,NAVIGATE,-1,0
3.580884187634272,2.3463463463463463,1.8280355095835916,1.6820765853798887,0.8306426316831925,-0.5369064398663704,0.14752726277001552,0.9999999999999867,0.0,0.0,0.0,NAVIGATE,-1,0
3.5905662825988593,2.3543543543543546,1.8227799292708051,1.683488550755818,0.8270945531207617,-0.5428143735430108,0.14583263034431554,1.0000000000000329,0.0,0.0,0.0,NAVIGATE,-1,0
3.6002483775634473,2.3623623623623624,1.8175243489580186,1.6849005161317472,0.8270945531206779,-0.5428143735429859,0.14583263034430888,0.9999999999999489,0.0,0.0,0.0,NAVIGATE,-1,0
3.609985894894239,2.3703703703703702,1.8121637499039596,1.686298739752193,0.8223870352132772,-0.5505098344839737,0.14359138710072225,0.9999999999999828,0.0,0.0,0.0,NAVIGATE,-1,0
3.619723412225031,2.378378378378378,1.8068031508499005,1.6876969633726386,0.8223870352132772,-0.5505098344839737,0.14359138710072225,0.9999999999999828,0.0,0.0,0.0,NAVIGATE,-1,0
3.6295166105788366,2.386386386386386,1.8013385601327232,1.6890814452376008,0.8177112030918879,-0.5579985740872716,0.1413717781407143,1.0000000000000393,0.0,0.0,0.0,NAVIGATE,-1,0
3.6393098089326434,2.3943943943943937,1.795873969415546,1.690465927102563,0.8177112030917767,-0.5579985740871957,0.14137177814069507,0.9999999999999031,0.0,0.0,0.0,NAVIGATE,-1,0
3.6491449336302817,2.4024024024024024,1.7903320268748768,1.6918401026509131,0.814225366144235,-0.5634847255164843,0.13972121255158576,0.9999999999999933,0.0,0.0,0.0,NAVIGATE,-1,0
3.6590080590632468,2.4104104104104103,1.7847388588112634,1.6932074073215213,0.8119138362818566,-0.5670786711197685,0.13862793086239306,1.0000000000000362,0.0,0.0,0.0,NAVIGATE,-1,0
3.6688992295081597,2.418418418418418,1.7790947219942446,1.6945678411143872,0.8096117696694194,-0.5706237546357926,0.13754022341871108,0.9999999999999836,0.0,0.0,0.0,NAVIGATE,-1,0
3.678818484907959,2.4264264264264264,1.7733998731933616,1.6959214040295123,0.8073194695814025,-0.5741205938702156,0.13645811712364336,1.000000000000008,0.0,0.0,0.0,NAVIGATE,-1,0
3.6887658609402147,2.4344344344344346,1.7676545691781484,1.6972680960668947,0.805037226102748,-0.5775698029895587,0.13538163562084085,0.9999999999999893,0.0,0.0,0.0,NAVIGATE,-1,0
3.69874138908463,2.4424424424424425,1.7618590667181473,1.6986079172265356,0.8027653164901495,-0.5809719922694813,0.13431079941276444,0.9999999999999979,0.0,0.0,0.0,NAVIGATE,-1,0
3.7087450966897477,2.4504504504504503,1.7560136225828953,1.6999408675084346,0.8005040055260105,-0.5843277678629397,0.13324562597342732,0.9999999999999616,0.0,0.0,0.0,NAVIGATE,-1,0
3.7187770070388324,2.4584584584584586,1.7501184935419307,1.701266946912592,0.798253545870147,-0.5876377315814469,0.1321861298609394,1.0000000000000322,0.0,0.0,0.0,NAVIGATE,-1,0
3.728837139414937,2.466466466466467,1.7441739363647937,1.7025861554390083,0.7960141784047936,-0.590902480692696,0.13113232282605738,0.9999999999999989,0.0,0.0,0.0,NAVIGATE,-1,0
3.738925509165144,2.4744744744744747,1.73818020782102,1.7038984930876822,0.7937861325754361,-0.5941226077335924,0.13008421391840466,1.0000000000000004,0.0,0.0,0.0,NAVIGATE,-1,0
3.749042127763975,2.482482482482482,1.732137564680151,1.7052039598586144,0.7915696267261181,-0.5972987003352267,0.12904180959071176,0.9999999999999613,0.0,0.0,0.0,NAVIGATE,-1,0
3.7591870028759753,2.4904904904904903,1.7260462637117246,1.7065025557518045,0.7893648684285716,-0.6004313410641198,0.12800511379918997,1.0000000000000284,0.0,0.0,0.0,NAVIGATE,-1,0
3.76936013841746,2.4984984984984986,1.7199065616852776,1.7077942807672533,0.7871720548057856,-0.6035211072741737,0.1269741281025144,1.0000000000000004,0.0,0.0,0.0,NAVIGATE,-1,0
3.7795615346174243,2.5065065065065064,1.7137187153703515,1.709079134904961,0.7849913728510862,-0.6065685709714655,0.12594885175739307,1.0000000000000022,0.0,0.0,0.0,NAVIGATE,-1,0
3.7897911880776323,2.5145145145145147,1.7074829815364816,1.7103571181649255,0.7828229997387862,-0.6095742986921376,0.12492928181152176,0.9999999999999929,0.0,0.0,0.0,NAVIGATE,-1,0
3.8000490918318546,2.5225225225225225,1.7011996169532089,1.7116282305471493,0.7806671031312427,-0.6125388513892416,0.12391541319546523,0.9999999999999902,0.0,0.0,0.0,NAVIGATE,-1,0
3.81033523540429,2.5305305305305303,1.6948688783900714,1.7128924720516308,0.7785238414781063,-0.6154627843327405,0.1229072388090451,1.0000000000000502,0.0,0.0,0.0,NAVIGATE,-1,0
3.8206496048671528,2.538538538538538,1.6884910226166063,1.7141498426783706,0.7763933643099555,-0.6183466470179096,0.12190474960849734,0.9999999999999666,0.0,0.0,0.0,NAVIGATE,-1,0
3.830992182897423,2.5465465465465464,1.682066306402355,1.7154003424273696,0.7742758125266874,-0.621190983084443,0.12090793468892527,1.00000000000001,0.0,0.0,0.0,NAVIGATE,-1,0
3.841362948832794,2.5545545545545547,1.675594986516853,1.716643971298626,0.7721713186772494,-0.6239963302451009,0.11991678136469637,0.9999999999999919,0.0,0.0,0.0,NAVIGATE,-1,0
3.851761878726776,2.5625625625625625,1.6690773197296416,1.7178807292921405,0.7700800072363254,-0.6267632202216389,0.1189312752488451,1.000000000000007,0.0,0.0,0.0,NAVIGATE,-1,0
3.8622029823606967,2.5705705705705704,1.6624906461289397,1.7191071809690426,0.7669694975530829,-0.6308407455418127,0.11746379692253962,1.0000000000000189,0.0,0.0,0.0,NAVIGATE,-1,0
3.872644085994618,2.578578578578578,1.6559039725282376,1.7203336326459444,0.7669694975530502,-0.6308407455418071,0.11746379692251337,0.9999999999999875,0.0,0.0,0.0,NAVIGATE,-1,0
3.883127332053414,2.5865865865865865,1.6492488056531256,1.7215497780062343,0.7638862965816717,-0.6348383733231019,0.11600847232517944,1.0000000000000029,0.0,0.0,0.0,NAVIGATE,-1,0
3.8936386145170103,2.594594594594594,1.6425483189544547,1.722759052488782,0.7618488072926928,-0.6374566302329592,0.1150453797370284,1.0000000000000475,0.0,0.0,0.0,NAVIGATE,-1,0
3.90417789381643,2.602602602602602,1.6358027692017676,1.7239614560935879,0.7598250108476793,-0.6400389970743623,0.11408783946660897,0.9999999999998951,0.0,0.0,0.0,NAVIGATE,-1,0
3.914745127412282,2.6106106106106104,1.6290124131646004,1.7251569888206522,0.7578149886978648,-0.6425859687470721,0.11313582842850996,0.9999999999999816,0.0,0.0,0.0,NAVIGATE,-1,0
3.925340269844292,2.618618618618618,1.6221775076124925,1.7263456506699744,0.7558188159711751,-0.6450980339309382,0.11218932231916132,1.0000000000000318,0.0,0.0,0.0,NAVIGATE,-1,0
3.9359632727800578,2.626626626626626,1.615298309314983,1.7275274416415556,0.7538365616982323,-0.6475756750803859,0.11124829567751972,0.9999999999999916,0.0,0.0,0.0,NAVIGATE,-1,0
3.9466140850630373,2.6346346346346348,1.6083750750416088,1.7287023617353947,0.7518682890323605,-0.6500193684229946,0.11031272194297277,0.9999999999999728,0.0,0.0,0.0,NAVIGATE,-1,0
3.957292652759776,2.6426426426426426,1.60140806156191,1.729870410951492,0.7499140554639826,-0.652429583962536,0.10938257351255166,1.0000000000000968,0.0,0.0,0.0,NAVIGATE,-1,0
3.9680127254371254,2.6506506506506504,1.5943758928118,1.7310281538509764,0.7470106079530566,-0.6559814435743817,0.10799767262125434,0.9999999999999662,0.0,0.0,0.0,NAVIGATE,-1,0
3.9787327981144744,2.6586586586586582,1.58734372406169,1.7321858967504609,0.7470106079530876,-0.6559814435743881,0.10799767262125881,0.9999999999999941,0.0,0.0,0.0,NAVIGATE,-1,0
3.989494281375509,2.6666666666666665,1.5802469135802482,1.7333333333333334,0.7441360836385547,-0.6594639706533875,0.10662438950466745,1.0000000000000504,0.0,0.0,0.0,NAVIGATE,-1,0
4.000283277466002,2.6746746746746743,1.573107350970633,1.7344738990384632,0.7422384752798845,-0.6617448509325746,0.10571564727276675,0.9999999999999416,0.0,0.0,0.0,NAVIGATE,-1,0
4.011099719250489,2.682682682682682,1.5659252930023877,1.735607593865852,0.74035511562524,-0.6639945105187581,0.10481217853127071,0.9999999999999893,0.0,0.0,0.0,NAVIGATE,-1,0
4.021943537084546,2.69069069069069,1.5587009964450473,1.7367344178154986,0.7384860323692745,-0.6662133823985151,0.10391395050069092,1.0000000000000215,0.0,0.0,0.0,NAVIGATE,-1,0
