time,x,y,z,velocity_x,velocity_y,velocity_z,speed,roll,pitch,yaw,state,target_waypoint,obstacle_avoiding
0.0,1.5241476236129299e-16,1.1164029556871343e-17,0.9714285714285713,0.0,0.0,0.0,0.0,0.0,0.0,0.0,NAVIGATE,-1,0
0.023003761232325563,0.008008008008008159,0.02129060262402148,0.974857139421704,0.3481173329496621,0.9255270218203833,0.1490438002075422,0.9999999999999999,0.0,0.0,0.0,NAVIGATE,-1,0
0.04588807834086818,0.016016016016016165,0.042453205633068876,0.9782788365370949,0.34993432270778363,0.9247644536942502,0.14952148666536175,1.0,0.0,0.0,0.0,NAVIGATE,-1,0
0.068653283646166,0.02402402402402417,0.06348806579668075,0.9816936627747437,0.35176524439884643,0.9239916742027678,0.15000199611000595,1.0,0.0,0.0,0.0,NAVIGATE,-1,0
0.0912997103672868,0.03203203203203217,0.08439543988439566,0.985101618134651,0.3536102232207552,0.9232085196123241,0.15048534596095786,1.0000000000000002,0.0,0.0,0.0,NAVIGATE,-1,0
0.11376862558853784,0.04004004004004018,0.10511209839734229,0.9884992671779458,0.3564038552441578,0.922014183103636,0.15121553532238496,0.9999999999999997,0.0,0.0,0.0,NAVIGATE,-1,0
0.13623754080978887,0.048048048048048186,0.1258287569102889,0.9918969162212405,0.356403855244158,0.9220141831036366,0.15121553532238505,1.0000000000000002,0.0,0.0,0.0,NAVIGATE,-1,0
0.15852964027388133,0.05605605605605621,0.14635521338754442,0.9952842589479227,0.3592307678739327,0.9207951234166611,0.15195261137868227,1.0,0.0,0.0,0.0,NAVIGATE,-1,0
0.18070430327790288,0.0640640640640642,0.16675521086705714,0.9986647307968628,0.36113324502634747,0.9199687713771801,0.15244749596992777,0.9999999999999997,0.0,0.0,0.0,NAVIGATE,-1,0
0.20276186773232932,0.07207207207207222,0.18702900611836581,1.0020383317680612,0.36305041857878373,0.9191311802894991,0.15294530718333357,1.000000000000001,0.0,0.0,0.0,NAVIGATE,-1,0
0.22470267252717258,0.08008008008008019,0.20717685591100887,1.0054050618615182,0.36498241896259376,0.91828216790746,0.15344606202632488,0.9999999999999988,0.0,0.0,0.0,NAVIGATE,-1,0
0.24652705754624926,0.08808808808808824,0.22719901701452494,1.0087649210772334,0.36692937743758886,0.917421548694944,0.15394977740624907,0.9999999999999998,0.0,0.0,0.0,NAVIGATE,-1,0
0.2682353636816773,0.09609609609609623,0.24709574619845254,1.0121179094152069,0.36889142607671743,0.9165491337647981,0.15445647012050367,1.0000000000000009,0.0,0.0,0.0,NAVIGATE,-1,0
0.2898279328486044,0.10410410410410423,0.2668673002323303,1.0154640268754382,0.3708686977496722,0.9156647308168129,0.1549661568460581,1.0000000000000007,0.0,0.0,0.0,NAVIGATE,-1,0
0.3113051080001722,0.11211211211211224,0.2865139358856968,1.018803273457928,0.37286132610523715,0.9147681440746804,0.15547885412882081,1.000000000000001,0.0,0.0,0.0,NAVIGATE,-1,0
0.33266723314271845,0.12012012012012023,0.30603590992809043,1.022135649162676,0.37486944555243246,0.9138591742219668,0.15599457837231304,0.9999999999999994,0.0,0.0,0.0,NAVIGATE,-1,0
0.3539146533512233,0.12812812812812827,0.32543347912905,1.0254611539896825,0.3768931912403473,0.9129376183370815,0.15651334582611218,0.9999999999999999,0.0,0.0,0.0,NAVIGATE,-1,0
0.3750477147849999,0.13613613613613626,0.34470690025811385,1.028779787938947,0.37893269903663573,0.9120032698272234,0.1570351725737408,1.0000000000000004,0.0,0.0,0.0,NAVIGATE,-1,0
0.39600991874273855,0.14414414414414428,0.36379461281841147,1.032088115571599,0.3820212809756429,0.9105775613470717,0.15782346356908913,0.9999999999999973,0.0,0.0,0.0,NAVIGATE,-1,0
0.4169721227004772,0.15215215215215228,0.3828823253787091,1.035396443204251,0.3820212809756426,0.9105775613470741,0.15782346356908955,0.9999999999999996,0.0,0.0,0.0,NAVIGATE,-1,0
0.4377641958499331,0.16016016016016027,0.4017848429093175,1.0386944645202902,0.3851471640391736,0.9091213461368107,0.15861916665705275,1.0000000000000013,0.0,0.0,0.0,NAVIGATE,-1,0
0.4584433060279055,0.16816816816816826,0.42056423944618454,1.0419856149585882,0.38725109248357314,0.9081336854073656,0.15915338764449055,1.000000000000001,0.0,0.0,0.0,NAVIGATE,-1,0
0.47900980505962426,0.17617617617617626,0.43922077175884877,1.0452698945191439,0.38937147229859664,0.9071321416392323,0.15969074539572667,0.9999999999999999,0.0,0.0,0.0,NAVIGATE,-1,0
0.4994640459541795,0.1841841841841843,0.45775469661684887,1.0485473032019577,0.39150844312876587,0.9061164847693615,0.16023125471677666,1.0000000000000036,0.0,0.0,0.0,NAVIGATE,-1,0
0.51980638292204,0.19219219219219227,0.4761662707897231,1.0518178410070302,0.3936621451438977,0.9050864805731665,0.16077493014887187,0.9999999999999953,0.0,0.0,0.0,NAVIGATE,-1,0
0.5400371713928479,0.20020020020020032,0.49445575104701045,1.0550815079343607,0.3958327190046606,0.90404189059058,0.16132178595212948,0.9999999999999988,0.0,0.0,0.0,NAVIGATE,-1,0
0.5601567680334936,0.20820820820820832,0.5126233941582492,1.0583383039839496,0.39802030582612147,0.9029824720509768,0.1618718360888732,0.9999999999999977,0.0,0.0,0.0,NAVIGATE,-1,0
0.5801655307664737,0.21621621621621637,0.530669456892978,1.0615882291557968,0.40022504713940027,0.901907977797333,0.16242509420586954,0.9999999999999976,0.0,0.0,0.0,NAVIGATE,-1,0
0.6000638187885369,0.2242242242242243,0.5485941960207351,1.0648312834499019,0.402447084851153,0.900818156209331,0.16298157361624308,0.9999999999999983,0.0,0.0,0.0,NAVIGATE,-1,0
0.6198519925896215,0.23223223223223233,0.5663978683110595,1.0680674668662655,0.4046865612009671,0.8997127511255505,0.16354128728070308,1.0,0.0,0.0,0.0,NAVIGATE,-1,0
0.639530413972087,0.24024024024024038,0.5840807305334897,1.0712967794048875,0.40694361871646995,0.8985915017648014,0.16410424778785937,0.999999999999998,0.0,0.0,0.0,NAVIGATE,-1,0
0.6590994460702446,0.24824824824824843,0.6016430394575643,1.0745192210657677,0.4092184001661472,0.8974541426465312,0.16467046733412696,1.0000000000000004,0.0,0.0,0.0,NAVIGATE,-1,0
0.6785594533701919,0.25625625625625637,0.6190850518528215,1.077734791848906,0.4115110485097121,0.8963004035103582,0.16523995770273922,0.9999999999999982,0.0,0.0,0.0,NAVIGATE,-1,0
0.6979108017299522,0.2642642642642643,0.6364070244888,1.0809434917543026,0.41382170684601843,0.8951300092348221,0.16581273024203674,1.0000000000000016,0.0,0.0,0.0,NAVIGATE,-1,0
0.7171538583999256,0.2722722722722723,0.6536092141350386,1.0841453207819574,0.4161505183583221,0.8939426797552703,0.16638879584296232,1.0000000000000024,0.0,0.0,0.0,NAVIGATE,-1,0
0.7362889920436525,0.2802802802802804,0.6706918775610757,1.0873402789318707,0.4184976262568928,0.8927381299809947,0.16696816491588715,0.9999999999999981,0.0,0.0,0.0,NAVIGATE,-1,0
0.755316572758895,0.2882882882882884,0.6876552715364501,1.090528366204042,0.42086317371882187,0.8915160697116624,0.16755084736638895,1.000000000000002,0.0,0.0,0.0,NAVIGATE,-1,0
0.7742369720990406,0.2962962962962964,0.7044996528306999,1.0937095825984715,0.42324730382494885,0.890276203552907,0.168136852570528,0.9999999999999946,0.0,0.0,0.0,NAVIGATE,-1,0
0.7929973277905714,0.3043043043043044,0.7211660286423406,1.0968804926762883,0.42685800523617723,0.8883827196924928,0.16902185278119553,1.0000000000000133,0.0,0.0,0.0,NAVIGATE,-1,0
0.8117576834821026,0.3123123123123124,0.7378324044539812,1.1000514027541053,0.4268580052361671,0.8883827196924718,0.16902185278120338,0.9999999999999918,0.0,0.0,0.0,NAVIGATE,-1,0
0.8303059239521033,0.3203203203203204,0.7542622955206044,1.103208571076439,0.43173949685199936,0.8857924336918284,0.17021389858730812,1.0,0.0,0.0,0.0,NAVIGATE,-1,0
0.848854164422104,0.32832832832832837,0.7706921865872276,1.1063657393987725,0.43173949685199936,0.8857924336918284,0.17021389858729616,0.999999999999998,0.0,0.0,0.0,NAVIGATE,-1,0
0.867191803200768,0.33633633633633636,0.7868866199869877,1.1095091659656222,0.4366978815901519,0.8831253355586038,0.1714193743693512,1.0000000000000013,0.0,0.0,0.0,NAVIGATE,-1,0
0.8855294419794322,0.34434434434434436,0.803081053386748,1.112652592532472,0.4366978815901493,0.8831253355586046,0.17141937436935017,1.0000000000000007,0.0,0.0,0.0,NAVIGATE,-1,0
0.9037101021076153,0.3523523523523524,0.8190995354602072,1.1157857127827095,0.4404684951782519,0.8810726321553027,0.1723325901341026,0.9999999999999978,0.0,0.0,0.0,NAVIGATE,-1,0
0.9217866083674935,0.3603603603603604,0.8350010590088508,1.1189119621552053,0.44300640250279993,0.8796790331070717,0.17294544241851673,1.0000000000000009,0.0,0.0,0.0,NAVIGATE,-1,0
0.9397593464309661,0.3683683683683685,0.8507858808022173,1.1220313406499594,0.44556416388682474,0.878264721692415,0.17356167344884546,0.999999999999992,0.0,0.0,0.0,NAVIGATE,-1,0
0.9575771871538027,0.3763763763763765,0.8663961635017446,1.1251404128281006,0.449437624489728,0.8761040657143246,0.17449208501210106,1.0000000000000049,0.0,0.0,0.0,NAVIGATE,-1,0
0.9753950278766393,0.3843843843843845,0.882006446201272,1.1282494850062417,0.44943762448972524,0.8761040657143192,0.17449208501208752,0.9999999999999964,0.0,0.0,0.0,NAVIGATE,-1,0
0.9930587923893421,0.3923923923923925,0.8974427033460376,1.1313482508677704,0.4533579465605466,0.8738939614862223,0.17543065971583946,1.0000000000000067,0.0,0.0,0.0,NAVIGATE,-1,0
1.0106203485275358,0.4004004004004004,0.9127632858136803,1.1344401458515572,0.45599649285018456,0.8723932177241849,0.1760604219498762,0.9999999999999969,0.0,0.0,0.0,NAVIGATE,-1,0
1.0280800906587833,0.4084084084084085,0.9279684503737388,1.1375251699576021,0.45865557164651527,0.8708699387287068,0.17669356642580178,1.000000000000001,0.0,0.0,0.0,NAVIGATE,-1,0
1.0454384149681624,0.41641641641641647,0.9430584537957512,1.1406033231859054,0.4613353147043737,0.8693237407633236,0.1773300909374123,0.9999999999999964,0.0,0.0,0.0,NAVIGATE,-1,0
1.0626957194852495,0.4244244244244244,0.9580335528492561,1.1436746055364673,0.4640358521853094,0.8677542335002226,0.1779699922152304,0.9999999999999971,0.0,0.0,0.0,NAVIGATE,-1,0
1.0798524041114734,0.43243243243243246,0.9728940043037926,1.1467390170092873,0.4667573125269121,0.8661610199340268,0.17861326588331997,1.0000000000000022,0.0,0.0,0.0,NAVIGATE,-1,0
1.0969088706478396,0.4404404404404405,0.9876400649288989,1.1497965576043654,0.46949982230693216,0.8645436962964261,0.1792599064149147,1.000000000000006,0.0,0.0,0.0,NAVIGATE,-1,0
1.1138655228230312,0.44844844844844856,1.0022719914941136,1.1528472273217019,0.47226350610199763,0.8629018519718143,0.17990990708647966,1.000000000000002,0.0,0.0,0.0,NAVIGATE,-1,0
1.1307227663218817,0.45645645645645644,1.016790040768975,1.1558910261612962,0.4750484863408382,0.8612350694140053,0.18056325993048217,0.9999999999999954,0.0,0.0,0.0,NAVIGATE,-1,0
1.147481008814226,0.46446446446446443,1.0311944695230217,1.1589279541231492,0.4778548831517582,0.8595429240642171,0.18121995568690016,1.0000000000000033,0.0,0.0,0.0,NAVIGATE,-1,0
1.1641406599841253,0.4724724724724726,1.045485534525793,1.1619580112072605,0.4806828142042399,0.8578249842705193,0.18187998375296213,1.000000000000001,0.0,0.0,0.0,NAVIGATE,-1,0
1.1807021315594683,0.4804804804804806,1.0596634925468267,1.16498119741363,0.48353239454460256,0.8560808112089549,0.18254333213181342,1.0000000000000024,0.0,0.0,0.0,NAVIGATE,-1,0
1.1971658373419518,0.48848848848848847,1.0737286003556614,1.1679975127422575,0.4864037364253674,0.8543099588064369,0.18320998737943714,0.9999999999999938,0.0,0.0,0.0,NAVIGATE,-1,0
1.2135321932374343,0.4964964964964965,1.087681114721836,1.171006957193143,0.4892969491283297,0.8525119736657879,0.18387993455013046,0.9999999999999942,0.0,0.0,0.0,NAVIGATE,-1,0
1.2298016172866668,0.5045045045045045,1.1015212924148887,1.1740095307662874,0.49221213878101105,0.8506863949929258,0.1845531571405647,0.9999999999999937,0.0,0.0,0.0,NAVIGATE,-1,0
1.2459745296963973,0.5125125125125125,1.1152493902043588,1.1770052334616898,0.4951494081665831,0.8488327545266654,0.18522963703185658,0.9999999999999984,0.0,0.0,0.0,NAVIGATE,-1,0
1.2620513528708486,0.5205205205205207,1.1288656648597843,1.1799940652793506,0.4981088565267185,0.84695057647111,0.185909354430824,0.9999999999999931,0.0,0.0,0.0,NAVIGATE,-1,0
1.278032511443566,0.5285285285285286,1.1423703731507033,1.1829760262192694,0.5010905793575555,0.8450393774312357,0.18659228780881937,0.9999999999999951,0.0,0.0,0.0,NAVIGATE,-1,0
1.2939184323096378,0.5365365365365364,1.155763771846655,1.1859511162814462,0.5040946681983585,0.843098666351563,0.1872784138394396,1.0000000000000069,0.0,0.0,0.0,NAVIGATE,-1,0
1.3097095446582778,0.5445445445445445,1.169046117717178,1.1889193354658818,0.5071212104128754,0.841127944458391,0.18796770733451196,1.0000000000000053,0.0,0.0,0.0,NAVIGATE,-1,0
1.3254062800057704,0.5525525525525525,1.1822176675318106,1.1918806837725755,0.510170288963128,0.839126705206032,0.18866014117813013,1.0000000000000022,0.0,0.0,0.0,NAVIGATE,-1,0
1.3410090722287793,0.5605605605605607,1.195278678060092,1.1948351612015273,0.5132419821754112,0.8370944342270196,0.1893556862594741,0.9999999999999977,0.0,0.0,0.0,NAVIGATE,-1,0
1.3565183575980049,0.5685685685685686,1.2082294060715597,1.1977827677527377,0.5163363634985976,0.8350306092868326,0.19005431140361978,0.9999999999999994,0.0,0.0,0.0,NAVIGATE,-1,0
1.3719345748121976,0.5765765765765766,1.2210701083357525,1.2007235034262058,0.5194535012542166,0.8329347002435296,0.19075598330054266,0.9999999999999999,0.0,0.0,0.0,NAVIGATE,-1,0
1.3872581650325133,0.5845845845845846,1.2338010416222098,1.2036573682219327,0.5225934583783892,0.8308061690124643,0.19146066643293702,0.9999999999999986,0.0,0.0,0.0,NAVIGATE,-1,0
1.402489571917203,0.5925925925925926,1.2464224627004694,1.2065843621399175,0.5257562921556129,0.8286444695365844,0.1921683230015305,1.000000000000003,0.0,0.0,0.0,NAVIGATE,-1,0
1.4176292416566423,0.6006006006006007,1.2589346283400702,1.2095044851801608,0.5289420539436921,0.8264490477626634,0.19287891284948974,0.9999999999999928,0.0,0.0,0.0,NAVIGATE,-1,0
1.4326776230086764,0.6086086086086087,1.2713377953105505,1.212417737342662,0.5321507888903598,0.8242193416239886,0.1935923933843725,1.0000000000000016,0.0,0.0,0.0,NAVIGATE,-1,0
1.4476351673342887,0.6166166166166166,1.283632220381449,1.2153241186274215,0.5353825356409333,0.8219547810295569,0.19430871949902465,1.0000000000000062,0.0,0.0,0.0,NAVIGATE,-1,0
1.4625023286335703,0.6246246246246245,1.2958181603223042,1.2182236290344397,0.5386373260371404,0.8196547878608166,0.19502784349008742,0.9999999999999974,0.0,0.0,0.0,NAVIGATE,-1,0
1.4772795635819898,0.6326326326326326,1.307895871902655,1.2211162685637158,0.541915184806924,0.8173187759759204,0.1957497149752968,1.0000000000000047,0.0,0.0,0.0,NAVIGATE,-1,0
1.4919673315669484,0.6406406406406406,1.3198656118920398,1.2240020372152505,0.5452161292450184,0.8149461512220699,0.19647428080903184,1.0000000000000058,0.0,0.0,0.0,NAVIGATE,-1,0
1.5065660947246104,0.6486486486486487,1.3317276370599966,1.2268809349890428,0.548540168884451,0.8125363114567116,0.19720148499576037,0.9999999999999967,0.0,0.0,0.0,NAVIGATE,-1,0
1.5210763179769968,0.6566566566566565,1.3434822041760646,1.2297529618850938,0.5518873051585071,0.810088646577836,0.19793126860254123,1.0000000000000202,0.0,0.0,0.0,NAVIGATE,-1,0
1.5354984690693285,0.6646646646646646,1.3551295700097825,1.232618117903403,0.5552575310534595,0.8076025385638134,0.19866356966906912,0.9999999999999781,0.0,0.0,0.0,NAVIGATE,-1,0
1.5498330186075988,0.6726726726726726,1.3666699913306883,1.2354764030439704,0.5586508307518363,0.8050773615240074,0.1993983231169124,1.0000000000000053,0.0,0.0,0.0,NAVIGATE,-1,0
1.5640804400963753,0.6806806806806807,1.378103724908321,1.2383278173067962,0.562067179265837,0.8025124817595737,0.20013546065665208,1.0000000000000075,0.0,0.0,0.0,NAVIGATE,-1,0
1.578241209976795,0.6886886886886886,1.3894310275122186,1.2411723606918799,0.5655065420617182,0.7999072578363072,0.20087491069372104,1.0000000000000064,0.0,0.0,0.0,NAVIGATE,-1,0
1.592315807664752,0.6966966966966966,1.4006521559119203,1.2440100331992219,0.5689688746741401,0.7972610406692647,0.20161659823286596,0.9999999999999947,0.0,0.0,0.0,NAVIGATE,-1,0
1.6063047155892436,0.7047047047047046,1.4117673668769646,1.2468408348288227,0.5724541223112609,0.7945731736202124,0.20236044478101528,1.0000000000000113,0.0,0.0,0.0,NAVIGATE,-1,0
1.620208419230871,0.7127127127127127,1.4227769171768898,1.2496647655806814,0.5759622194501001,0.7918429926083047,0.20310636824881143,0.9999999999999913,0.0,0.0,0.0,NAVIGATE,-1,0
1.6340274071604577,0.7207207207207208,1.4336810635812345,1.2524818254547982,0.5794930894224726,0.7890698262351549,0.203854282851313,1.000000000000001,0.0,0.0,0.0,NAVIGATE,-1,0
1.6477621710777752,0.7287287287287287,1.4444800628595371,1.2552920144511734,0.5830466439915291,0.7862529959242086,0.20460409900689713,1.000000000000001,0.0,0.0,0.0,NAVIGATE,-1,0
1.6614132058503441,0.7367367367367368,1.4551741717813365,1.2580953325698068,0.5866227829189737,0.7833918160759971,0.20535572323546175,1.0000000000000049,0.0,0.0,0.0,NAVIGATE,-1,0
1.674981009552288,0.7447447447447446,1.465763647116171,1.2608917798106984,0.5902213935230042,0.7804855942393594,0.20610905805565616,0.9999999999999963,0.0,0.0,0.0,NAVIGATE,-1,0
1.6884660835032135,0.7527527527527529,1.4762487456335796,1.2636813561738482,0.593842350227425,0.777533631299728,0.20686400188100829,0.9999999999999994,0.0,0.0,0.0,NAVIGATE,-1,0
1.701868932307087,0.7607607607607607,1.4866297241031003,1.2664640616592566,0.5974855141015573,0.7745352216851539,0.2076204489156178,0.9999999999999976,0.0,0.0,0.0,NAVIGATE,-1,0
1.7151900638910795,0.7687687687687687,1.4969068392942715,1.2692398962669227,0.6011507323920481,0.771489653590747,0.20837828904878286,0.9999999999999823,0.0,0.0,0.0,NAVIGATE,-1,0
1.728429989544347,0.7767767767767767,1.5070803479766333,1.272008859996848,0.6048378380457008,0.7683962092227565,0.20913740774986683,1.0000000000000169,0.0,0.0,0.0,NAVIGATE,-1,0
1.7415892239567086,0.7847847847847846,1.5171505069197224,1.2747709528490305,0.6085466492249191,0.7652541650621667,0.20989768596171945,0.9999999999999776,0.0,0.0,0.0,NAVIGATE,-1,0
1.7546682852571995,0.7927927927927929,1.5271175728930786,1.277526174823472,0.6122769688148539,0.7620627921502304,0.21065899999552187,1.000000000000012,0.0,0.0,0.0,NAVIGATE,-1,0
1.7676676950524461,0.8008008008008006,1.5369818026662396,1.2802745259201713,0.6160285839235518,0.7588213563948121,0.21142122142377648,1.0000000000000202,0.0,0.0,0.0,NAVIGATE,-1,0
1.78058797846484,0.8088088088088087,1.546743453008744,1.2830160061391291,0.619801265375212,0.7555291189000184,0.21218421697530582,0.9999999999999878,0.0,0.0,0.0,NAVIGATE,-1,0
1.7934296641704555,0.8168168168168167,1.5564027806901315,1.285750615480345,0.6235947671968215,0.7521853363194789,0.21294784842928638,0.9999999999999839,0.0,0.0,0.0,NAVIGATE,-1,0
1.8061932844366788,0.8248248248248248,1.5659600424799391,1.288478353943819,0.6274088260992703,0.7487892612332911,0.2137119725108341,1.0000000000000169,0.0,0.0,0.0,NAVIGATE,-1,0
1.8188793751595065,0.8328328328328328,1.5754154951477068,1.2911992215295518,0.6312431609525099,0.7453401425510324,0.21447644078698486,0.9999999999999812,0.0,0.0,0.0,NAVIGATE,-1,0
1.8314884759004484,0.8408408408408409,1.5847693954629722,1.2939132182375424,0.6350974722571571,0.7418372259405596,0.2152410995637596,1.0000000000000158,0.0,0.0,0.0,NAVIGATE,-1,0
1.8440211299230143,0.8488488488488488,1.5940220001952743,1.296620344067791,0.6389714416107707,0.7382797542836597,0.21600578978517412,1.000000000000002,0.0,0.0,0.0,NAVIGATE,-1,0
1.8564778842287077,0.8568568568568569,1.603173566114151,1.299320599020298,0.6428647311722211,0.7346669681599135,0.21677034693321776,0.9999999999999796,0.0,0.0,0.0,NAVIGATE,-1,0
1.8688592895924911,0.8648648648648649,1.6122243499891422,1.302013983095064,0.6467769831227811,0.7309981063591864,0.21753460093023125,0.9999999999999988,0.0,0.0,0.0,NAVIGATE,-1,0
1.8811659005976575,0.872872872872873,1.6211746085897853,1.3047004962920876,0.650707819126341,0.727272406423325,0.2182983760432255,1.000000000000021,0.0,0.0,0.0,NAVIGATE,-1,0
1.8933982756700614,0.8808808808808811,1.6300245986856194,1.3073801386113697,0.6546568397885532,0.7234891052187916,0.2190614907915424,1.000000000000018,0.0,0.0,0.0,NAVIGATE,-1,0
1.9055203754153025,0.8888888888888891,1.6387246995633165,1.310049474614039,0.6606122846952894,0.7177057655471342,0.22020409489842677,0.9999999999999817,0.0,0.0,0.0,NAVIGATE,-1,0
1.9176424751605434,0.8968968968968969,1.6474248004410137,1.3127188106167083,0.6606122846952924,0.7177057655471656,0.22020409489843082,1.000000000000007,0.0,0.0,0.0,NAVIGATE,-1,0
1.9296555319135213,0.9049049049049049,1.6559755256396513,1.315377840302765,0.6666086885856873,0.71178596542616,0.2213449699550901,1.0,0.0,0.0,0.0,NAVIGATE,-1,0
1.9415966255212664,0.912912912912913,1.6644270094116342,1.3180299991110802,0.6706260139200307,0.7077646361051222,0.22210351040168147,1.0000000000000175,0.0,0.0,0.0,NAVIGATE,-1,0
1.9534663341089191,0.9209209209209209,1.6727795085265003,1.3206752870416534,0.6746591922516252,0.7036819019764817,0.22286039383687128,0.9999999999999898,0.0,0.0,0.0,NAVIGATE,-1,0
1.965265239832477,0.9289289289289289,1.681033279753789,1.3233137040944847,0.6787076865966483,0.6995370096744766,0.22361540253376108,1.0000000000000093,0.0,0.0,0.0,NAVIGATE,-1,0
1.9769939289067031,0.9369369369369368,1.6891885798630384,1.325945250269574,0.6827709352109622,0.6953292100794726,0.22436831247170475,0.9999999999999979,0.0,0.0,0.0,NAVIGATE,-1,0
1.9886529916318496,0.9449449449449451,1.6972456656237873,1.3285699255669225,0.6868483510888437,0.6910577591602837,0.22511889327840162,0.9999999999999942,0.0,0.0,0.0,NAVIGATE,-1,0
2.000243022419114,0.9529529529529528,1.7052047938055737,1.3311877299865287,0.6909393214733583,0.6867219188522123,0.2258669081779063,0.999999999999988,0.0,0.0,0.0,NAVIGATE,-1,0
2.0117646198147576,0.9609609609609611,1.713066221177937,1.3337986635283932,0.6950432073799128,0.6823209579720053,0.22661211394625386,0.9999999999999907,0.0,0.0,0.0,NAVIGATE,-1,0
2.0232183865227884,0.9689689689689689,1.7208302045104151,1.3364027261925155,0.6991593431349562,0.6778541531699244,0.22735426087354782,0.999999999999988,0.0,0.0,0.0,NAVIGATE,-1,0
2.034604929426141,0.9769769769769768,1.7284970005725466,1.3389999179788967,0.7032870359317088,0.673320789918972,0.2280930927346283,0.9999999999999825,0.0,0.0,0.0,NAVIGATE,-1,0
2.045924859606251,0.9849849849849849,1.7360668661338705,1.3415902388875358,0.7074255654048692,0.6687201635417014,0.2288283467675847,1.0000000000000124,0.0,0.0,0.0,NAVIGATE,-1,0
2.057178792360949,0.9929929929929929,1.7435400579639253,1.3441736889184335,0.7115741832263177,0.6640515802740297,0.22955975366204456,1.0000000000000078,0.0,0.0,0.0,NAVIGATE,-1,0
2.0683673472205695,1.0010010010010013,1.7509168328322493,1.3467502680715895,0.715732112724331,0.65931435836693,0.23028703755610544,0.999999999999999,0.0,0.0,0.0,NAVIGATE,-1,0
2.0794911479621923,1.0090090090090087,1.75819744750838,1.3493199763470027,0.7198985485278611,0.654507829224968,0.23100991604407087,0.9999999999999948,0.0,0.0,0.0,NAVIGATE,-1,0
2.090550822621923,1.0170170170170167,1.7653821587618581,1.3518828137446752,0.7240726562387919,0.6496313385816318,0.23172810019484785,0.9999999999999879,0.0,0.0,0.0,NAVIGATE,-1,0
2.1015470035050963,1.025025025025025,1.772471223362222,1.3544387802646058,0.7282535721345172,0.6446842477111062,0.23244129458090593,0.9999999999999835,0.0,0.0,0.0,NAVIGATE,-1,0
2.1124803271943304,1.033033033033033,1.7794648980790084,1.3569878759067946,0.7324404029026765,0.639665934675748,0.23314919732037145,0.9999999999999835,0.0,0.0,0.0,NAVIGATE,-1,0
2.1233514345553197,1.0410410410410413,1.7863634396817574,1.359530100671242,0.7366322254110764,0.6345757956088446,0.2338515001305235,0.9999999999999846,0.0,0.0,0.0,NAVIGATE,-1,0
2.1341609707402553,1.0490490490490487,1.7931671049400055,1.3620654545579465,0.7408280865156353,0.6294132460308401,0.2345478883948672,0.9999999999999938,0.0,0.0,0.0,NAVIGATE,-1,0
2.1449095851887967,1.0570570570570568,1.799876150623294,1.36459393756691,0.7450270029077818,0.6241777221992563,0.23523804124416292,0.9999999999999971,0.0,0.0,0.0,NAVIGATE,-1,0
2.155597931626455,1.065065065065065,1.8064908335011611,1.367115549698132,0.7492279610056177,0.618868682489706,0.2359216316508564,0.9999999999999911,0.0,0.0,0.0,NAVIGATE,-1,0
2.1662266680603155,1.073073073073073,1.8130114103431438,1.369630290951612,0.7534299168898788,0.6134856088076179,0.23659832653942628,1.0,0.0,0.0,0.0,NAVIGATE,-1,0
2.1767964567719833,1.0810810810810814,1.8194381379187818,1.3721381613273507,0.7576317962882618,0.6080280080285475,0.23726778691141062,0.9999999999999901,0.0,0.0,0.0,NAVIGATE,-1,0
2.1873079643076316,1.0890890890890887,1.8257712729976119,1.3746391608253465,0.7618324946111986,0.6024954134649179,0.2379296679866398,1.0000000000000084,0.0,0.0,0.0,NAVIGATE,-1,0
2.197761861465078,1.0970970970970968,1.832011072349175,1.3771332894456012,0.766030877040345,0.5968873863579698,0.238583619361334,1.000000000000001,0.0,0.0,0.0,NAVIGATE,-1,0
2.2081588232777416,1.1051051051051048,1.8381577927430088,1.3796205471881144,0.7702257786745026,0.5912035173916881,0.23922928518249287,0.9999999999999871,0.0,0.0,0.0,NAVIGATE,-1,0
2.218499528995416,1.113113113113113,1.844211690948652,1.3821009340528858,0.7744160047336787,0.5854434282271227,0.23986630434051462,0.9999999999999878,0.0,0.0,0.0,NAVIGATE,-1,0
2.2287846620617247,1.1211211211211214,1.850173023735643,1.3845744500399153,0.7786003308251326,0.5796067730537064,0.24049431067956253,0.9999999999999873,0.0,0.0,0.0,NAVIGATE,-1,0
2.2390149100881636,1.129129129129129,1.8560420478735193,1.387041095149203,0.7827775032738039,0.5736932401549255,0.24111293322633648,1.0000000000000173,0.0,0.0,0.0,NAVIGATE,-1,0
2.249190964824636,1.137137137137137,1.8618190201318212,1.389500869380749,0.7869462395191364,0.5677025534853163,0.2417217964374484,1.0000000000000029,0.0,0.0,0.0,NAVIGATE,-1,0
2.259287053555681,1.145145145145145,1.8674584281098374,1.3919503372956825,0.7931792421142362,0.5585735355787343,0.24261552965572752,0.9999999999999855,0.0,0.0,0.0,NAVIGATE,-1,0
2.269383142286725,1.153153153153153,1.8730978360878536,1.394399805210616,0.7931792421142491,0.5585735355787589,0.24261552965571623,1.0000000000000067,0.0,0.0,0.0,NAVIGATE,-1,0
2.279400808517964,1.1611611611611614,1.8786001933246617,1.396838966808937,0.7993885824461178,0.5492653787615248,0.24348601181328694,0.9999999999999974,0.0,0.0,0.0,NAVIGATE,-1,0
2.28936708912469,1.1691691691691692,1.8840115257600483,1.3992712575295154,0.8035101884050504,0.5429640854919088,0.24405200059659674,0.9999999999999928,0.0,0.0,0.0,NAVIGATE,-1,0
2.2992826959766264,1.1771771771771768,1.8893320901635522,1.4016966773723527,0.8076165309482372,0.5365848488098109,0.24460629380072488,1.0000000000000195,0.0,0.0,0.0,NAVIGATE,-1,0
2.3091483448256507,1.1851851851851851,1.894562143304713,1.4041152263374481,0.8117061665741583,0.5301276399755621,0.24514849475253767,1.0000000000000047,0.0,0.0,0.0,NAVIGATE,-1,0
2.3189647552489667,1.1931931931931932,1.8997019419530694,1.4065269044248023,0.8157776277352199,0.5235924769555514,0.24567820449173183,1.0000000000000169,0.0,0.0,0.0,NAVIGATE,-1,0
2.3287326505880226,1.2012012012012012,1.9047517428781584,1.4089317116344144,0.8198294238461895,0.5169794259463366,0.2461950221760418,1.0000000000000202,0.0,0.0,0.0,NAVIGATE,-1,0
2.338452757883084,1.209209209209209,1.9097118028495186,1.411329647966284,0.823860042375921,0.5102886028717255,0.24669854550761072,1.0000000000000013,0.0,0.0,0.0,NAVIGATE,-1,0
2.3481258078033957,1.2172172172172173,1.9145823786366907,1.4137207134204128,0.8278679500240004,0.5035201748462748,0.24718837117836004,0.9999999999999873,0.0,0.0,0.0,NAVIGATE,-1,0
2.357752534572853,1.225225225225225,1.9193637270092105,1.4161049079967996,0.8318515939825468,0.49667436160020506,0.2476640953341507,0.9999999999999792,0.0,0.0,0.0,NAVIGATE,-1,0
2.3673336758911483,1.2332332332332332,1.9240561047366191,1.4184822316954446,0.835809403282366,0.48975143686154987,0.24812531405894084,1.0000000000000127,0.0,0.0,0.0,NAVIGATE,-1,0
2.3768699728503004,1.2412412412412412,1.9286597685884534,1.4208526845163483,0.8397397902256628,0.4827517296864472,0.2485716238763603,1.0000000000000138,0.0,0.0,0.0,NAVIGATE,-1,0
2.3863621698465525,1.249249249249249,1.9331749753342518,1.4232162664595094,0.8436411519029542,0.4756756257356566,0.24900262226904496,1.0000000000000062,0.0,0.0,0.0,NAVIGATE,-1,0
2.3958110144875757,1.2572572572572571,1.9376019817435544,1.4255729775249288,0.847511871794395,0.4685235684881774,0.24941790821573323,1.0000000000000233,0.0,0.0,0.0,NAVIGATE,-1,0
2.4052172574949493,1.2652652652652652,1.9419410445858984,1.4279228177126073,0.8513503214546496,0.461296060386988,0.24981708274349587,0.9999999999999808,0.0,0.0,0.0,NAVIGATE,-1,0
2.414581652601895,1.2732732732732732,1.9461924206308236,1.4302657870225435,0.8551548622792029,0.4539936639123626,0.2501997494956604,1.0000000000000124,0.0,0.0,0.0,NAVIGATE,-1,0
2.423884709646865,1.2812812812812813,1.9503127800186961,1.4325984500158673,0.8607931746841988,0.4429038076360305,0.25074155538850446,1.0000000000000209,0.0,0.0,0.0,NAVIGATE,-1,0
2.433187766691835,1.2892892892892893,1.9544331394065686,1.4349311130091909,0.8607931746841988,0.4429038076360305,0.2507415553884806,1.0000000000000149,0.0,0.0,0.0,NAVIGATE,-1,0
2.4424116844424733,1.2972972972972974,1.958379665816833,1.4372500342470307,0.868178600947958,0.4278579359612638,0.25140306977253823,1.000000000000021,0.0,0.0,0.0,NAVIGATE,-1,0
2.4516356021931114,1.3053053053053052,1.9623261922270978,1.4395689554848707,0.8681786009479339,0.42785793596128785,0.2514030697725623,1.0000000000000164,0.0,0.0,0.0,NAVIGATE,-1,0
2.460802161444147,1.313313313313313,1.9661429858280035,1.4418775704060987,0.8736111106359804,0.41638236293235625,0.25185185171492436,0.9999999999999999,0.0,0.0,0.0,NAVIGATE,-1,0
2.4699314521107736,1.3213213213213213,1.9698736332487212,1.4441793144495847,0.8771774610356929,0.40864592408648615,0.25212736975287886,1.0000000000000138,0.0,0.0,0.0,NAVIGATE,-1,0
2.479024245743927,1.3293293293293291,1.9735183912587884,1.4464741876153284,0.8806983124317015,0.4008402870574301,0.2523837291738784,1.0000000000000218,0.0,0.0,0.0,NAVIGATE,-1,0
2.488081315916901,1.3373373373373374,1.9770775166277446,1.448762189903331,0.8841720175586065,0.39296652239446267,0.25262057644533364,1.0000000000000135,0.0,0.0,0.0,NAVIGATE,-1,0
2.4971034380806585,1.345345345345345,1.9805512661251288,1.4510433213135912,0.8875969381323846,0.38502576603744715,0.2528375662461806,0.9999999999999994,0.0,0.0,0.0,NAVIGATE,-1,0
2.5060913894146606,1.3533533533533533,1.983939896520479,1.4533175818461104,0.8909714472655602,0.37701921933320526,0.25303436211492647,1.000000000000007,0.0,0.0,0.0,NAVIGATE,-1,0
2.5150295568291625,1.3613613613613613,1.9872013618018554,1.4555815360620161,0.8959339914595108,0.36489194374281214,0.25329064795010964,0.9999999999999823,0.0,0.0,0.0,NAVIGATE,-1,0
2.5239677242436644,1.3693693693693694,1.9904628270832316,1.457845490277922,0.8959339914595108,0.36489194374281214,0.2532906479501345,0.9999999999999886,0.0,0.0,0.0,NAVIGATE,-1,0
2.532857841120548,1.3773773773773774,1.9935976407897114,1.4600991381772161,0.9007764598495872,0.3526178283022427,0.25350036793713404,1.0000000000000036,0.0,0.0,0.0,NAVIGATE,-1,0
2.5417169100346935,1.3853853853853855,1.9966483624723117,1.4623459151987679,0.9039333688014666,0.3443614348375955,0.2536132231643675,0.9999999999999976,0.0,0.0,0.0,NAVIGATE,-1,0
2.550530886833908,1.3933933933933935,1.9995734596581696,1.4645823859037073,0.9085578723921587,0.33187030695594777,0.25374138778521904,0.999999999999985,0.0,0.0,0.0,NAVIGATE,-1,0
2.5593448636331217,1.4014014014014013,2.0024985568440274,1.4668188566086464,0.9085578723921792,0.3318703069559645,0.2537413877852066,1.000000000000006,0.0,0.0,0.0,NAVIGATE,-1,0
2.568115492060905,1.4094094094094094,2.00529854307222,1.4690450209969725,0.9130483720688181,0.3192457930748424,0.2538203968685018,0.9999999999999938,0.0,0.0,0.0,NAVIGATE,-1,0
2.576858210013439,1.4174174174174172,2.008015464354687,1.4712643145075572,0.9159632109242033,0.3107639177219061,0.2538448023410642,1.000000000000009,0.0,0.0,0.0,NAVIGATE,-1,0
2.5855738028228425,1.4254254254254255,2.0106495774609674,1.4734767371404007,0.9188139215692044,0.30222994165564804,0.2538464888419843,0.99999999999998,0.0,0.0,0.0,NAVIGATE,-1,0
2.594263055834913,1.4334334334334333,2.0132011391605995,1.475682288895502,0.9215991290486997,0.29364569038186633,0.25382524274956847,1.000000000000021,0.0,0.0,0.0,NAVIGATE,-1,0
2.6029267542185623,1.4414414414414416,2.015670406223122,1.4778809697728617,0.9243174973774916,0.28501304560446095,0.2537808658608438,0.9999999999999997,0.0,0.0,0.0,NAVIGATE,-1,0
2.6115656827724956,1.4494494494494492,2.0180576354180726,1.480072779772479,0.9269677319372708,0.276333943503194,0.2537131758798402,0.9999999999999944,0.0,0.0,0.0,NAVIGATE,-1,0
2.620180625729371,1.4574574574574575,2.0203630835149915,1.4822577188943549,0.9295485818182093,0.2676103728671801,0.25362200687957415,0.999999999999989,0.0,0.0,0.0,NAVIGATE,-1,0
2.628772366557643,1.4654654654654655,2.0225870072834162,1.48443578713849,0.9320588420983104,0.25884437308754255,0.2535072097342424,0.9999999999999836,0.0,0.0,0.0,NAVIGATE,-1,0
2.637341687761339,1.4734734734734733,2.024729663492885,1.486606984504882,0.9344973560512354,0.2500380320140708,0.25336865252005686,1.0000000000000242,0.0,0.0,0.0,NAVIGATE,-1,0
2.645878851714963,1.4814814814814814,2.0267509319029977,1.4887678755546618,0.9380173616800048,0.2367611095549857,0.2531157960088844,1.000000000000018,0.0,0.0,0.0,NAVIGATE,-1,0
2.654416015668587,1.4894894894894892,2.0287722003131106,1.4909287666044417,0.9380173616799788,0.2367611095549857,0.2531157960088844,0.9999999999999937,0.0,0.0,0.0,NAVIGATE,-1,0
2.662922760338294,1.4974974974974975,2.030672594462945,1.4930793513376095,0.9413716196896476,0.2233985177199443,0.25280936676354426,0.9999999999999815,0.0,0.0,0.0,NAVIGATE,-1,0
2.6714102016917973,1.5055055055055055,2.032492748131978,1.495223065193035,0.9435126175808832,0.21445257683951052,0.2525748062507226,1.000000000000013,0.0,0.0,0.0,NAVIGATE,-1,0
2.6798791143521994,1.5135135135135136,2.034232918089748,1.4973599081707185,0.9455768797157331,0.20547737679553754,0.2523160957456522,1.000000000000023,0.0,0.0,0.0,NAVIGATE,-1,0
2.688330270747178,1.5215215215215216,2.0358933611057948,1.4994898802706609,0.947563579910321,0.19647524414922504,0.25203321301779413,1.0000000000000169,0.0,0.0,0.0,NAVIGATE,-1,0
2.696764440901322,1.5295295295295297,2.037474333949655,1.5016129814928614,0.9494719529785033,0.18744853553653978,0.25172615484374106,1.0000000000000109,0.0,0.0,0.0,NAVIGATE,-1,0
2.70518239222848,1.5375375375375375,2.038976093390869,1.5037292118373196,0.9513012960971077,0.17839963464377903,0.2513949371067023,0.9999999999999768,0.0,0.0,0.0,NAVIGATE,-1,0
2.7135848893243977,1.5455455455455458,2.0403988961989743,1.5058385713040368,0.953050970038305,0.1693309491051681,0.2510395948535408,1.0000000000000204,0.0,0.0,0.0,NAVIGATE,-1,0
2.7219726937599216,1.5535535535535534,2.0417429991435094,1.5079410598930114,0.9547204002625788,0.1602449073374443,0.25066018230828496,0.9999999999999736,0.0,0.0,0.0,NAVIGATE,-1,0
2.730346563875056,1.5615615615615615,2.0430086589940144,1.510036677604245,0.9563090778700916,0.15114395531613375,0.25025677284463765,0.9999999999999813,0.0,0.0,0.0,NAVIGATE,-1,0
2.738707254574138,1.5695695695695693,2.044196132520026,1.5121254244377362,0.9578165604053541,0.14203055330607262,0.2498294589130614,0.9999999999999828,0.0,0.0,0.0,NAVIGATE,-1,0
2.747055517122427,1.5775775775775776,2.0453056764910835,1.5142073003934864,0.9592424725129673,0.1329071725571143,0.24937835192746904,0.999999999999989,0.0,0.0,0.0,NAVIGATE,-1,0
2.755386541436619,1.5855855855855854,2.0462988396687867,1.5162788700326235,0.9612273000291226,0.1192126130290214,0.24865725521988497,0.9999999999999855,0.0,0.0,0.0,NAVIGATE,-1,0
2.7637175657508113,1.5935935935935932,2.04729200284649,1.5183504396717606,0.9612273000291226,0.1192126130290214,0.24865725521988497,0.9999999999999855,0.0,0.0,0.0,NAVIGATE,-1,0
2.7720330120333854,1.6016016016016015,2.048169298769917,1.5204117029942854,0.9630280487518658,0.10550196509182935,0.24788366763241146,0.9999999999999797,0.0,0.0,0.0,NAVIGATE,-1,0
2.7803389948315194,1.6096096096096093,2.0489696922165432,1.522466095439068,0.9641252820565547,0.09636348474091673,0.24733887544821392,1.0000000000000155,0.0,0.0,0.0,NAVIGATE,-1,0
2.7886362442320167,1.6176176176176174,2.0496934399559086,1.524513617006109,0.9651400869700293,0.08722742976991384,0.24677112476796068,1.0000000000000127,0.0,0.0,0.0,NAVIGATE,-1,0
2.7969254855067134,1.6256256256256258,2.050340798757551,1.5265542676954087,0.9660724959778113,0.07809626722032546,0.24618063604069382,0.9999999999999736,0.0,0.0,0.0,NAVIGATE,-1,0
2.805207438926347,1.6336336336336335,2.0509120253910087,1.5285880475069658,0.9669226089853834,0.06897245184976206,0.24556764672639464,1.0000000000000038,0.0,0.0,0.0,NAVIGATE,-1,0
2.8134828195779025,1.6416416416416415,2.051407376625822,1.5306149564407818,0.9676905927587615,0.0598584229137594,0.24493241086560788,0.9999999999999822,0.0,0.0,0.0,NAVIGATE,-1,0
2.821752337185635,1.6496496496496496,2.051827109231528,1.532634994496856,0.968376680221352,0.05075660100339973,0.24427519861440722,1.0000000000000264,0.0,0.0,0.0,NAVIGATE,-1,0
2.830016695936018,1.6576576576576576,2.052171479977665,1.5346481616751884,0.9689811696082458,0.04166938495029314,0.24359629574878833,1.0000000000000153,0.0,0.0,0.0,NAVIGATE,-1,0
2.8382765943068,1.6656656656656659,2.0524407456337728,1.5366544579757793,0.9695044234848273,0.03259914880552441,0.2428960031382273,1.0000000000000089,0.0,0.0,0.0,NAVIGATE,-1,0
2.846531099468051,1.6736736736736737,2.0525978671939122,1.5386504479597571,0.9701378643022316,0.019034643151844565,0.24180613434559498,0.9999999999999866,0.0,0.0,0.0,NAVIGATE,-1,0
2.854785604629302,1.6816816816816815,2.0527549887540517,1.540646437943735,0.9701378643022316,0.019034643151844565,0.24180613434559498,0.9999999999999866,0.0,0.0,0.0,NAVIGATE,-1,0
2.863036253168328,1.6896896896896894,2.0528004797573,1.5426321216111,0.9705913383813636,0.005513627569175669,0.24067001011770114,0.9999999999999762,0.0,0.0,0.0,NAVIGATE,-1,0
2.871285174887545,1.6976976976976976,2.0527718927486736,1.5446109344007242,0.9707945208587117,-0.003465544903877004,0.23988744916977106,0.9999999999999778,0.0,0.0,0.0,NAVIGATE,-1,0
2.8795330373142605,1.7057057057057057,2.0526694844977103,1.5465828763126057,0.9709192022977592,-0.012416338399583164,0.23908520897418484,0.9999999999999998,0.0,0.0,0.0,NAVIGATE,-1,0
2.8877805013381312,1.7137137137137137,2.052493511773947,1.5485479473467456,0.970966103620499,-0.021336585798256338,0.23826366849886937,1.0000000000000193,0.0,0.0,0.0,NAVIGATE,-1,0
2.8960282210739208,1.7217217217217216,2.0522442313469242,1.550506147503144,0.9709359998325946,-0.030224163163661992,0.23742321746230127,1.0000000000000073,0.0,0.0,0.0,NAVIGATE,-1,0
2.9042768437296242,1.7297297297297298,2.0519218999861812,1.5524574767818007,0.9708297181555722,-0.03907699190483946,0.23656425564665165,1.0000000000000064,0.0,0.0,0.0,NAVIGATE,-1,0
2.9125280171837757,1.7377377377377379,2.0514905057639323,1.554398499743845,0.9705295922459248,-0.052282772219733625,0.23524205045860846,0.999999999999996,0.0,0.0,0.0,NAVIGATE,-1,0
2.9207791906379272,1.745745745745746,2.0510591115416834,1.556339522705889,0.9705295922459248,-0.052282772219733625,0.23524205045858154,0.9999999999999897,0.0,0.0,0.0,NAVIGATE,-1,0
2.9290343343709395,1.7537537537537533,2.0505191679970065,1.55827023935132,0.9700628198614394,-0.06540692229472275,0.23388043962336577,1.000000000000007,0.0,0.0,0.0,NAVIGATE,-1,0
2.937294835501745,1.7617617617617616,2.0498713170537486,1.5601906496801388,0.9694336797732782,-0.07842755941790355,0.23248109266120762,0.9999999999999784,0.0,0.0,0.0,NAVIGATE,-1,0
2.945555336632551,1.7697697697697699,2.0492234661104907,1.5621110600089576,0.9694336797732782,-0.07842755941790355,0.23248109266120762,0.9999999999999784,0.0,0.0,0.0,NAVIGATE,-1,0
2.9538225661748982,1.7777777777777775,2.048468221307728,1.5640211640211636,0.968644691306567,-0.0913540381205318,0.23104523739444732,0.9999999999999893,0.0,0.0,0.0,NAVIGATE,-1,0
2.9620950257935688,1.785785785785786,2.047641722958014,1.565924397155628,0.9680322875115441,-0.09990962637624357,0.23006859171229915,0.999999999999977,0.0,0.0,0.0,NAVIGATE,-1,0
2.970373303366123,1.7937937937937936,2.046744227830887,1.5678207594123506,0.9673519567110783,-0.10841568421220518,0.22907691124174767,1.000000000000006,0.0,0.0,0.0,NAVIGATE,-1,0
2.9786579789303325,1.8018018018018016,2.045775992695886,1.5697102507913314,0.9666049015369033,-0.11687061581312205,0.2280706545882856,1.0000000000000169,0.0,0.0,0.0,NAVIGATE,-1,0
2.986949624609395,1.8098098098098099,2.0447372743225496,1.5715928712925709,0.9657923550965958,-0.12527288472530218,0.22705028339468347,1.0000000000000169,0.0,0.0,0.0,NAVIGATE,-1,0
2.995248804542934,1.8178178178178175,2.043628329480415,1.573468620916068,0.9649155786639924,-0.1336210144875994,0.22601626166902494,1.0000000000000018,0.0,0.0,0.0,NAVIGATE,-1,0
3.0035560748237526,1.8258258258258258,2.0424494149390218,1.5753374996618237,0.9639758593745067,-0.1419135891262988,0.2249690551264416,1.0000000000000053,0.0,0.0,0.0,NAVIGATE,-1,0
3.0118719834402827,1.8338338338338336,2.041200787467909,1.5771995075298373,0.9629745079316738,-0.1501492535200281,0.2239091305443601,1.000000000000001,0.0,0.0,0.0,NAVIGATE,-1,0
3.0201970702247003,1.8418418418418416,2.0398827038366147,1.5790546445201095,0.961912856331659,-0.15832671363395032,0.22283695513475232,0.9999999999999927,0.0,0.0,0.0,NAVIGATE,-1,0
3.0285318668066217,1.84984984984985,2.0384954208146775,1.5809029106326402,0.9607922556116213,-0.16644473662936637,0.2217529959327068,1.0000000000000087,0.0,0.0,0.0,NAVIGATE,-1,0
3.0368768965723247,1.8578578578578577,2.0370391951716353,1.5827443058674286,0.9596140736273528,-0.17450215085236034,0.22065771920386898,1.000000000000018,0.0,0.0,0.0,NAVIGATE,-1,0
3.045232674629412,1.8658658658658658,2.0355142836770286,1.5845788302244757,0.958379692866055,-0.1824978457049111,0.21955158987151704,1.000000000000039,0.0,0.0,0.0,NAVIGATE,-1,0
3.0535997077768235,1.8738738738738734,2.033920943100393,1.5864064837037803,0.9570905082986108,-0.19043077140532236,0.21843507096300477,0.999999999999966,0.0,0.0,0.0,NAVIGATE,-1,0
3.0619784944801127,1.8818818818818817,2.032259430211269,1.5882272663053438,0.9557479252771345,-0.1982999386381001,0.21730862307889043,0.9999999999999323,0.0,0.0,0.0,NAVIGATE,-1,0
3.070369524851872,1.8898898898898895,2.030530001779196,1.5900411780291657,0.9543533574803126,-0.20610441810502086,0.21617270388231358,1.0000000000000724,0.0,0.0,0.0,NAVIGATE,-1,0
3.078773280637225,1.897897897897898,2.0287329145737107,1.5918482188752459,0.9529082249112747,-0.21384333997633645,0.21502776761191938,0.9999999999999785,0.0,0.0,0.0,NAVIGATE,-1,0
3.0871902352042304,1.9059059059059056,2.0268684253643534,1.593648388843584,0.9514139519534904,-0.22151589325029244,0.2138742646176072,0.9999999999999779,0.0,0.0,0.0,NAVIGATE,-1,0
3.095620853539128,1.9139139139139134,2.024936790920659,1.59544168793418,0.9498719654831856,-0.2291213250276762,0.21271264091897346,1.0000000000000262,0.0,0.0,0.0,NAVIGATE,-1,0
3.1040655922462617,1.9219219219219217,2.0229382680121715,1.5972281161470347,0.9482836930458977,-0.23665893970163218,0.21154333778802822,0.9999999999999835,0.0,0.0,0.0,NAVIGATE,-1,0
3.1125248995525756,1.92992992992993,2.0208731134084252,1.5990076734821477,0.9466505610963171,-0.24412809807782035,0.2103667913547342,0.999999999999976,0.0,0.0,0.0,NAVIGATE,-1,0
3.1209992153165445,1.9379379379379378,2.0187415838789606,1.600780359939519,0.9449739933053161,-0.25152821641688844,0.20918343223749067,0.9999999999999567,0.0,0.0,0.0,NAVIGATE,-1,0
3.129488971041405,1.945945945945946,2.0165439361933157,1.6025461755191484,0.943255408934621,-0.2588587654188397,0.20799368519621714,1.000000000000044,0.0,0.0,0.0,NAVIGATE,-1,0
3.137994589892549,1.9539539539539537,2.014280427121029,1.6043051202210357,0.9414962212808827,-0.2661192691443267,0.20679796880984322,0.9999999999999841,0.0,0.0,0.0,NAVIGATE,-1,0
3.1465164867189417,1.9619619619619622,2.01195131343164,1.6060571940451818,0.9396978361915067,-0.27330930388357527,0.205596695177047,1.0000000000000238,0.0,0.0,0.0,NAVIGATE,-1,0
3.155055068078419,1.96996996996997,2.009556851894686,1.607802396991586,0.937861650649913,-0.28042849697702443,0.2043902696397212,0.9999999999999852,0.0,0.0,0.0,NAVIGATE,-1,0
3.1636107322667284,1.9779779779779783,2.007097299279706,1.6095407290602484,0.9359890514345341,-0.28747652559116527,0.20317909053017966,0.9999999999999789,0.0,0.0,0.0,NAVIGATE,-1,0
3.172192739948789,1.985985985985986,2.004540623586764,1.611268754812298,0.9331159216680199,-0.29791114010375763,0.2013544867434426,0.9999999999999971,0.0,0.0,0.0,NAVIGATE,-1,0
3.180774747630849,1.9939939939939937,2.0019839478938217,1.6129967805643477,0.9331159216679941,-0.29791114010380937,0.20135448674346848,0.9999999999999936,0.0,0.0,0.0,NAVIGATE,-1,0
3.189383967969337,2.002002002002002,1.999330662661996,1.6147144999997853,0.9301664602784603,-0.3081911169080135,0.19952090525067906,1.0000000000000098,0.0,0.0,0.0,NAVIGATE,-1,0
3.1980117824023604,2.01001001001001,1.9966133134302977,1.6164253485574804,0.928161827096879,-0.3149522109907131,0.19829454735914787,1.0000000000000624,0.0,0.0,0.0,NAVIGATE,-1,0
3.2066585484716144,2.018018018018018,1.993832156968267,1.6181293262374343,0.926127519105967,-0.32164122861144356,0.19706531509079117,0.9999999999999425,0.0,0.0,0.0,NAVIGATE,-1,0
3.215324615701402,2.026026026026026,1.9909874500454412,1.6198264330396464,0.924064837678897,-0.32825811840552244,0.19583356062350543,1.0000000000000702,0.0,0.0,0.0,NAVIGATE,-1,0
3.2240103256498283,2.0340340340340335,1.9880794494313585,1.6215166689641158,0.9219750665814576,-0.3348028694660292,0.19459962795278068,0.9999999999999654,0.0,0.0,0.0,NAVIGATE,-1,0
3.2327160119625784,2.042042042042042,1.98510841189556,1.6232000340108448,0.9198594711918772,-0.34127550994425476,0.1933638528031418,0.999999999999993,0.0,0.0,0.0,NAVIGATE,-1,0
3.2414522599771516,2.05005005005005,1.9820433325162616,1.6248730927409603,0.9166415599293252,-0.35084619555046936,0.1915076961327789,0.9999999999999948,0.0,0.0,0.0,NAVIGATE,-1,0
3.2501885079917248,2.058058058058058,1.9789782531369633,1.626546151471076,0.9166415599293252,-0.35084619555046936,0.1915076961328043,0.9999999999999996,0.0,0.0,0.0,NAVIGATE,-1,0
3.2589560470047307,2.066066066066066,1.9758196454532437,1.6282089038845795,0.9133701026170516,-0.3602616057977053,0.18964870427573666,1.000000000000045,0.0,0.0,0.0,NAVIGATE,-1,0
3.267744818999375,2.0740740740740735,1.97259902792596,1.6298647854203403,0.911163472313011,-0.3664468175128856,0.18840874888663273,0.9999999999999256,0.0,0.0,0.0,NAVIGATE,-1,0
3.2765551189472157,2.0820820820820822,1.9693166573246528,1.6315137960783606,0.9089370458915327,-0.372560596204406,0.18716850365853835,0.9999999999999925,0.0,0.0,0.0,NAVIGATE,-1,0
3.2853872342769628,2.09009009009009,1.9659727904188589,1.6331559358586383,0.9066919655177541,-0.3786031749983597,0.18592825376123698,0.9999999999999948,0.0,0.0,0.0,NAVIGATE,-1,0
3.294252582838295,2.098098098098098,1.9625371925954131,1.6347877693223036,0.9032930800866685,-0.3875310485174404,0.18406873146340325,1.0000000000000169,0.0,0.0,0.0,NAVIGATE,-1,0
3.303117931399628,2.1061061061061057,1.9591015947719672,1.636419602785969,0.9032930800866233,-0.387531048517446,0.18406873146339403,0.9999999999999765,0.0,0.0,0.0,NAVIGATE,-1,0
3.312017143050901,2.1141141141141135,1.9555747795699463,1.6380411299330213,0.8998558885676534,-0.39630647525013535,0.18221020137445357,0.999999999999993,0.0,0.0,0.0,NAVIGATE,-1,0
3.3209392457567803,2.1221221221221223,1.9519874951415939,1.6396557862023324,0.8975471670743747,-0.4020671523976627,0.18097261626982852,0.9999999999999736,0.0,0.0,0.0,NAVIGATE,-1,0
3.329884490283835,2.13013013013013,1.9483399982564482,1.6412635715939017,0.8952251650346374,-0.40775820874586843,0.17973632657067318,1.0000000000000262,0.0,0.0,0.0,NAVIGATE,-1,0
3.3388531202858753,2.138138138138138,1.9446325456840485,1.642864486107729,0.8928908881497141,-0.41338003369035337,0.17850156751512808,0.9999999999999903,0.0,0.0,0.0,NAVIGATE,-1,0
3.347845372379737,2.146146146146146,1.940865394193932,1.6444585297438152,0.8905453188389733,-0.4189330382194431,0.1772685662554261,1.0000000000000182,0.0,0.0,0.0,NAVIGATE,-1,0
3.356861476221961,2.1541541541541536,1.9370388005556378,1.6460457025021584,0.8881894161982047,-0.4244176537068646,0.1760375419491256,1.0000000000000189,0.0,0.0,0.0,NAVIGATE,-1,0
3.3659016545862745,2.1621621621621623,1.933153021538705,1.6476260043827609,0.8858241159953769,-0.4298343307331274,0.17480870585924568,0.9999999999999853,0.0,0.0,0.0,NAVIGATE,-1,0
3.3749661234417543,2.17017017017017,1.9292083139126717,1.6491994353856212,0.8834503307015892,-0.43518353793543924,0.17358226145916453,1.0000000000000153,0.0,0.0,0.0,NAVIGATE,-1,0
3.3840550920316157,2.178178178178178,1.9252049344470765,1.65076599551074,0.8810689495550268,-0.4404657608852173,0.17235840454618587,0.9999999999999492,0.0,0.0,0.0,NAVIGATE,-1,0
3.393168762952506,2.186186186186186,1.9211431399114587,1.6523256847581171,0.8786808386566315,-0.4456815009973097,0.17113732335912654,1.000000000000031,0.0,0.0,0.0,NAVIGATE,-1,0
3.402307332234243,2.1941941941941936,1.9170231870753551,1.6538785031277519,0.876286841093459,-0.4508312744684127,0.1699191987019117,0.999999999999933,0.0,0.0,0.0,NAVIGATE,-1,0
3.4114709894199025,2.2022022022022023,1.9128453327083061,1.6554244506196456,0.8738877770919797,-0.4559156112460374,0.16870420407182882,1.0000000000000593,0.0,0.0,0.0,NAVIGATE,-1,0
3.420672604988793,2.21021021021021,1.9085811395839143,1.656960091794926,0.8702828267551032,-0.46341787400992235,0.16688821259521977,0.9999999999999781,0.0,0.0,0.0,NAVIGATE,-1,0
3.4298742205576835,2.218218218218218,1.9043169464595224,1.6584957329702068,0.8702828267551032,-0.46341787400992235,0.1668882125952439,0.9999999999999821,0.0,0.0,0.0,NAVIGATE,-1,0
3.439114215052748,2.226226226226226,1.8999669281168674,1.6600210678288756,0.8666680496709442,-0.470781486393586,0.16507962850881994,1.0000000000000013,0.0,0.0,0.0,NAVIGATE,-1,0
3.4483799923665126,2.2342342342342336,1.8955600353214184,1.6615395318098014,0.8642564716196806,-0.4756096165728574,0.16387874751426348,0.9999999999999619,0.0,0.0,0.0,NAVIGATE,-1,0
3.457671710816799,2.242242242242242,1.8910965248427172,1.6630511249129865,0.8618435923186333,-0.48037513217628214,0.1626817591678572,1.0000000000000078,0.0,0.0,0.0,NAVIGATE,-1,0
3.46698952271853,2.25025025025025,1.8865766534503012,1.6645558471384294,0.8594300993048183,-0.48507862576366045,0.16148879600836571,1.0000000000000413,0.0,0.0,0.0,NAVIGATE,-1,0
3.4763335744643005,2.2582582582582584,1.8820006779137075,1.6660536984861303,0.8570166589277664,-0.4897206973051138,0.16029998425242825,1.0000000000000235,0.0,0.0,0.0,NAVIGATE,-1,0
3.4857040066047675,2.2662662662662663,1.8773688550024792,1.6675446789560904,0.854603916656577,-0.4943019533992859,0.1591154439421386,1.0000000000000075,0.0,0.0,0.0,NAVIGATE,-1,0
3.4951142442056384,2.2742742742742745,1.8726537745683696,1.669025353109437,0.850988927980644,-0.5010585953401697,0.15734715914182604,0.9999999999999564,0.0,0.0,0.0,NAVIGATE,-1,0
3.504524481806508,2.2822822822822824,1.8679386941342597,1.6705060272627836,0.8509889279807173,-0.5010585953402642,0.15734715914184833,1.0000000000000697,0.0,0.0,0.0,NAVIGATE,-1,0
3.5139748412164313,2.29029029029029,1.863140869716348,1.6719763950995181,0.847376026735981,-0.5076869788543393,0.15558856260964316,1.0000000000000195,0.0,0.0,0.0,NAVIGATE,-1,0
3.523452086403165,2.2982982982982985,1.8582882250019523,1.6734398920585103,0.8449721253617095,-0.5120311460537674,0.1544221902205092,0.999999999999959,0.0,0.0,0.0,NAVIGATE,-1,0
3.5329563299038735,2.3063063063063067,1.8533810167606135,1.6748965181397615,0.8425718477658081,-0.5163176049701313,0.15326060208185727,1.000000000000037,0.0,0.0,0.0,NAVIGATE,-1,0
3.5424876788896777,2.3143143143143137,1.8484195017618665,1.67634627334327,0.8401757211842622,-0.5205469872246362,0.1521038843156057,1.0000000000000178,0.0,0.0,0.0,NAVIGATE,-1,0
3.55204623524348,2.3223223223223224,1.8434039367752533,1.6777891576690371,0.837784254399797,-0.5247199264163057,0.1509521179098616,1.0000000000000149,0.0,0.0,0.0,NAVIGATE,-1,0
3.5616320956372713,2.33033033033033,1.8383345785703102,1.6792251711170625,0.8353979381125329,-0.5288370575714239,0.1498053788635867,0.9999999999999678,0.0,0.0,0.0,NAVIGATE,-1,0
3.5712453516088845,2.338338338338338,1.833211683916576,1.6806543136873464,0.8330172453177774,-0.5328990166143108,0.1486637383321558,1.0000000000001046,0.0,0.0,0.0,NAVIGATE,-1,0
3.5808860896381636,2.3463463463463463,1.8280355095835916,1.6820765853798887,0.8306426316831542,-0.5369064398663457,0.14752726277000872,0.9999999999999406,0.0,0.0,0.0,NAVIGATE,-1,0
3.5905543912225117,2.354354354354354,1.8228063123408924,1.6834919861946884,0.8282745359300582,-0.5408599635705056,0.1463960140725341,0.9999999999999837,0.0,0.0,0.0,NAVIGATE,-1,0
3.600250332951809,2.3623623623623624,1.8175243489580186,1.6849005161317472,0.8259133802146441,-0.5447602234359256,0.1452700497160286,1.000000000000018,0.0,0.0,0.0,NAVIGATE,-1,0
3.6099739865826628,2.37037037037037,1.8121898762045088,1.6863021751910636,0.8235595705093417,-0.5486078542106151,0.14414942289479676,1.0000000000000049,0.0,0.0,0.0,NAVIGATE,-1,0
3.619725419111977,2.378378378378378,1.8068031508499005,1.6876969633726386,0.8212134969846787,-0.5524034892734988,0.14303418265799195,0.9999999999999906,0.0,0.0,0.0,NAVIGATE,-1,0
3.62950469284981,2.3863863863863863,1.801364429663734,1.6890848806764724,0.8188755343894194,-0.5561477602499227,0.1419243740426661,0.9999999999999826,0.0,0.0,0.0,NAVIGATE,-1,0
3.6393118654915173,2.3943943943943937,1.795873969415546,1.690465927102563,0.8165460424293229,-0.5598412966483757,0.14082003820523695,1.0000000000000242,0.0,0.0,0.0,NAVIGATE,-1,0
3.649146990189156,2.4024024024024024,1.7903320268748768,1.6918401026509131,0.8142253661441983,-0.5634847255164589,0.13972121255157946,0.9999999999999482,0.0,0.0,0.0,NAVIGATE,-1,0
3.6590101156221215,2.4104104104104103,1.7847388588112634,1.6932074073215213,0.8119138362818201,-0.567078671119743,0.1386279308623868,0.9999999999999912,0.0,0.0,0.0,NAVIGATE,-1,0
3.6689153054486625,2.418418418418418,1.7790693660023125,1.694564405675517,0.8084658798310305,-0.572375987561539,0.13699872266551905,0.9999999999999964,0.0,0.0,0.0,NAVIGATE,-1,0
3.6788415370762073,2.4264264264264264,1.7733619675902306,1.6959162508712058,0.8067520795894432,-0.5749813853068017,0.1361891648727568,0.9999999999999795,0.0,0.0,0.0,NAVIGATE,-1,0
3.6887677687037517,2.4344344344344346,1.7676545691781484,1.6972680960668947,0.8067520795894793,-0.5749813853068498,0.13618916487276292,1.000000000000037,0.0,0.0,0.0,NAVIGATE,-1,0
3.6987432968481673,2.4424424424424425,1.7618590667181473,1.6986079172265356,0.8027653164901137,-0.5809719922694554,0.13431079941275845,0.9999999999999534,0.0,0.0,0.0,NAVIGATE,-1,0
3.708747004453284,2.4504504504504503,1.7560136225828953,1.6999408675084346,0.8005040055260817,-0.5843277678629917,0.13324562597343914,1.0000000000000504,0.0,0.0,0.0,NAVIGATE,-1,0
3.7187789148023698,2.4584584584584586,1.7501184935419307,1.701266946912592,0.7982535458700762,-0.5876377315813949,0.1321861298609277,0.9999999999999437,0.0,0.0,0.0,NAVIGATE,-1,0
3.7288390471784743,2.466466466466467,1.7441739363647937,1.7025861554390083,0.7960141784047936,-0.590902480692696,0.13113232282605738,0.9999999999999989,0.0,0.0,0.0,NAVIGATE,-1,0
3.738927416928681,2.4744744744744747,1.73818020782102,1.7038984930876822,0.793786132575471,-0.5941226077336185,0.13008421391841038,1.0000000000000444,0.0,0.0,0.0,NAVIGATE,-1,0
3.7490440355275116,2.482482482482482,1.732137564680151,1.7052039598586144,0.7915696267261528,-0.5972987003352529,0.12904180959071743,1.0000000000000049,0.0,0.0,0.0,NAVIGATE,-1,0
3.7591889106395127,2.4904904904904903,1.7260462637117246,1.7065025557518045,0.7893648684285024,-0.6004313410640673,0.12800511379917875,0.9999999999999409,0.0,0.0,0.0,NAVIGATE,-1,0
3.7693620461809973,2.4984984984984986,1.7199065616852776,1.7077942807672533,0.7871720548057856,-0.6035211072741737,0.1269741281025144,1.0000000000000004,0.0,0.0,0.0,NAVIGATE,-1,0
3.7795634423809616,2.5065065065065064,1.7137187153703515,1.709079134904961,0.7849913728510862,-0.6065685709714655,0.12594885175739307,1.0000000000000022,0.0,0.0,0.0,NAVIGATE,-1,0
3.7897930958411696,2.5145145145145147,1.7074829815364816,1.7103571181649255,0.7828229997387862,-0.6095742986921376,0.12492928181152176,0.9999999999999929,0.0,0.0,0.0,NAVIGATE,-1,0
3.800050999595392,2.5225225225225225,1.7011996169532089,1.7116282305471493,0.7806671031312427,-0.6125388513892416,0.12391541319546523,0.9999999999999902,0.0,0.0,0.0,NAVIGATE,-1,0
3.810337143167828,2.5305305305305303,1.6948688783900714,1.7128924720516308,0.7785238414780726,-0.615462784332714,0.1229072388090398,1.000000000000007,0.0,0.0,0.0,NAVIGATE,-1,0
3.82065151263069,2.538538538538538,1.6884910226166063,1.7141498426783706,0.776393364309989,-0.6183466470179363,0.1219047496085026,1.0000000000000095,0.0,0.0,0.0,NAVIGATE,-1,0
3.831008167419832,2.5465465465465464,1.6820430045667296,1.7153969069884982,0.7732234173146395,-0.6225965991100693,0.12041188352006467,1.0000000000000013,0.0,0.0,0.0,NAVIGATE,-1,0
3.841364822208974,2.5545545545545547,1.675594986516853,1.716643971298626,0.7732234173146395,-0.6225965991100693,0.12041188352006467,1.0000000000000013,0.0,0.0,0.0,NAVIGATE,-1,0
3.851763752102956,2.5625625625625625,1.6690773197296416,1.7178807292921405,0.7700800072363254,-0.6267632202216389,0.1189312752488451,1.000000000000007,0.0,0.0,0.0,NAVIGATE,-1,0
3.8621908187791907,2.570570570570571,1.6625135628102568,1.7191106164079133,0.768001994871679,-0.629492178691528,0.11795140032775597,0.9999999999999817,0.0,0.0,0.0,NAVIGATE,-1,0
3.872645991884929,2.578578578578578,1.6559039725282376,1.7203336326459444,0.7659373907077676,-0.6321837252404108,0.11697713903558815,1.0000000000000089,0.0,0.0,0.0,NAVIGATE,-1,0
3.883129237943726,2.5865865865865865,1.6492488056531256,1.7215497780062343,0.7638862965816394,-0.634838373323075,0.11600847232517451,0.9999999999999606,0.0,0.0,0.0,NAVIGATE,-1,0
3.8936405204073217,2.594594594594594,1.6425483189544547,1.722759052488782,0.761848807292725,-0.6374566302329862,0.11504537973703326,1.00000000000009,0.0,0.0,0.0,NAVIGATE,-1,0
3.9041797997067413,2.602602602602602,1.6358027692017676,1.7239614560935879,0.7598250108476793,-0.6400389970743623,0.11408783946660897,0.9999999999998951,0.0,0.0,0.0,NAVIGATE,-1,0
3.914747033302593,2.6106106106106104,1.6290124131646004,1.7251569888206522,0.7578149886978967,-0.6425859687470991,0.1131358284285147,1.0000000000000235,0.0,0.0,0.0,NAVIGATE,-1,0
3.925342175734604,2.618618618618618,1.6221775076124925,1.7263456506699744,0.7558188159711118,-0.6450980339308842,0.11218932231915191,0.999999999999948,0.0,0.0,0.0,NAVIGATE,-1,0
3.935965178670369,2.626626626626626,1.615298309314983,1.7275274416415556,0.7538365616982639,-0.6475756750804129,0.11124829567752437,1.0000000000000333,0.0,0.0,0.0,NAVIGATE,-1,0
3.946629854671711,2.6346346346346343,1.6083531854384465,1.7286989262965238,0.7508908856678559,-0.6512268985633269,0.10984718662065292,0.9999999999999696,0.0,0.0,0.0,NAVIGATE,-1,0
3.9572945306730514,2.6426426426426426,1.60140806156191,1.729870410951492,0.7508908856679497,-0.6512268985634083,0.10984718662066664,1.0000000000000946,0.0,0.0,0.0,NAVIGATE,-1,0
3.9680007971196765,2.6506506506506504,1.5943975256454244,1.7310315892898473,0.7479739130284929,-0.6548067854873449,0.10845782179476951,0.9999999999999456,0.0,0.0,0.0,NAVIGATE,-1,0
3.9787347029676257,2.6586586586586582,1.58734372406169,1.7321858967504609,0.7460479085101928,-0.6571514305840441,0.10753843726270924,0.9999999999999971,0.0,0.0,0.0,NAVIGATE,-1,0
3.9894961862286604,2.6666666666666665,1.5802469135802482,1.7333333333333334,0.7441360836385547,-0.6594639706533875,0.10662438950466745,1.0000000000000504,0.0,0.0,0.0,NAVIGATE,-1,0
4.0002851823191525,2.6746746746746743,1.573107350970633,1.7344738990384632,0.742238475279915,-0.6617448509326018,0.1057156472727711,0.9999999999999827,0.0,0.0,0.0,NAVIGATE,-1,0
4.01110162410364,2.682682682682682,1.5659252930023877,1.735607593865852,0.74035511562524,-0.6639945105187581,0.10481217853127071,0.9999999999999893,0.0,0.0,0.0,NAVIGATE,-1,0
4.021959081655187,2.6906906906906904,1.5586800055352696,1.7367309823766277,0.7375583068125326,-0.6673097668326079,0.10346699542156162,0.9999999999999625,0.0,0.0,0.0,NAVIGATE,-1,0
