time,x,y,z,velocity_x,velocity_y,velocity_z,speed,roll,pitch,yaw,state,target_waypoint,obstacle_avoiding
0.0,0.08607052708068444,-0.04565875002451426,0.8444668478178108,0.0,0.0,0.0,0.0,0.0,0.0,0.0,NAVIGATE,-1,0
0.1159380613856637,0.005785184014740596,-0.04094430500628768,0.9279753610055077,-0.6924847811529089,0.040663479808793326,0.7202855748114411,1.0000000000000002,0.0,0.0,0.0,NAVIGATE,-1,0
0.2535159686432559,-0.06691880057225444,0.06264193139584384,0.9819355576192558,-0.5284568288342161,0.7529278389747797,0.3922155649069179,1.0000000000000002,0.0,0.0,0.0,NAVIGATE,-1,0
0.323727378841393,0.0028291720819539345,0.0654465923604309,0.9894851476420714,0.9933993984365084,0.0399459426419764,0.107526540223457,0.9999999999999998,0.0,0.0,0.0,NAVIGATE,-1,0
0.3893711183712705,-0.04155555167819014,0.10310122556680348,0.9591334519020367,-0.6761455712001685,0.5736210867334004,-0.46236999837920983,0.9999999999999999,0.0,0.0,0.0,NAVIGATE,-1,0
0.6015082351737797,0.1450787147393956,0.06424136195146898,1.0521910573077675,0.8797812906608625,-0.1831827650015221,0.4386672488453002,1.0000000000000002,0.0,0.0,0.0,NAVIGATE,-1,0
0.8211483582059053,-0.026357334481266106,0.13327471114935335,0.9335071857341578,-0.780531566154635,0.31430208763718115,-0.5403560603371657,1.0000000000000002,0.0,0.0,0.0,NAVIGATE,-1,0
0.9801892520167577,0.07276662098033809,0.1622871955022839,1.0544481759296729,0.6232608047304644,0.18242153736532157,0.7604395781335987,0.9999999999999996,0.0,0.0,0.0,NAVIGATE,-1,0
1.0663359736329054,0.137061770239499,0.11311037549769629,1.0249688305979214,0.7463447018407384,-0.5708495817601684,-0.34219927094968744,0.9999999999999988,0.0,0.0,0.0,NAVIGATE,-1,0
1.1615028803630696,0.11869150243873758,0.17563542327519635,0.9556154471336851,-0.19303209941296512,0.657004098649369,-0.7287552558672592,1.0000000000000007,0.0,0.0,0.0,NAVIGATE,-1,0
1.2945408713039555,-0.005833855838272256,0.2117664582981096,0.9853995114591357,-0.9360135206216506,0.27158434043827173,0.22387638384200287,0.9999999999999999,0.0,0.0,0.0,NAVIGATE,-1,0
1.4217784750460303,0.10110461411745678,0.16428751926324978,1.0353927289758844,0.8404627783819754,-0.3731517856238874,0.3929122841553245,0.9999999999999997,0.0,0.0,0.0,NAVIGATE,-1,0
1.562420959814181,0.025115103122983207,0.20296608095617447,0.9235451916496344,-0.5403026768173386,0.27501335572026014,-0.7952613857088119,0.9999999999999997,0.0,0.0,0.0,NAVIGATE,-1,0
1.653382263912278,0.022403851582116413,0.2836421687185706,0.9654734258321372,-0.02980664764813454,0.8869275629051143,0.4609458340360358,1.000000000000001,0.0,0.0,0.0,NAVIGATE,-1,0
1.8056675537754208,0.15556895483807207,0.23831231177079146,1.0238092540393888,0.8744449537813516,-0.2976640553300757,0.38306935791157093,0.9999999999999998,0.0,0.0,0.0,NAVIGATE,-1,0
1.8822450908616986,0.09522398196657927,0.2701113568824169,0.989003734860272,-0.788024467325239,0.4152529099466639,-0.4545134317900871,1.0000000000000004,0.0,0.0,0.0,NAVIGATE,-1,0
2.0317436813949863,0.2017744109624182,0.36516074145922783,1.0333032737270804,0.7127186190569076,0.6357878307598293,0.2963207794052381,1.000000000000001,0.0,0.0,0.0,NAVIGATE,-1,0
2.1431707438184517,0.19086848140478038,0.2563924889018476,1.0549023055669724,-0.09787505225787163,-0.9761385626771641,0.19384009028082783,1.0000000000000002,0.0,0.0,0.0,NAVIGATE,-1,0
2.3949731541546164,0.19220239554796362,0.49849956091537767,0.985715311086823,0.005297463758994262,0.9614962449736242,-0.2747670063514581,0.9999999999999998,0.0,0.0,0.0,NAVIGATE,-1,0
2.546214886362227,0.12747442744256723,0.41474064822904766,1.0937375136736482,-0.4279769026748767,-0.5538082079842453,0.7142354230546787,0.9999999999999989,0.0,0.0,0.0,NAVIGATE,-1,0
2.657390295352184,0.2315999664995211,0.3998599807404977,1.0577318277993564,0.9365878659943603,-0.1338485517952464,-0.32386375909392423,1.0000000000000009,0.0,0.0,0.0,NAVIGATE,-1,0
2.757277693988516,0.25897459905864517,0.43532061392015714,0.9684532447400125,0.27405491516291264,0.35500607347643204,-0.8937922528585145,1.0000000000000018,0.0,0.0,0.0,NAVIGATE,-1,0
2.9323825156517818,0.13535314788850958,0.4025255815088739,1.0880522465312346,-0.7059854205949005,-0.1872880032644078,0.6830137551621298,1.0000000000000007,0.0,0.0,0.0,NAVIGATE,-1,0
3.0305748853240573,0.17597360174148105,0.4908549283077816,1.101823473227276,0.41368238681422315,0.8995540803599464,0.14024742189239334,1.0000000000000022,0.0,0.0,0.0,NAVIGATE,-1,0
3.1591835149059357,0.26684325407047005,0.506210703996945,1.012117921328179,0.7065595257831201,0.11939926379036005,-0.697508030298901,1.0,0.0,0.0,0.0,NAVIGATE,-1,0
3.2459703344277013,0.19250817474807952,0.475457656277728,1.0446832108373627,-0.8565249853838435,-0.354351592657504,0.375233125129289,0.9999999999999978,0.0,0.0,0.0,NAVIGATE,-1,0
3.347781633919433,0.21451289547682928,0.5516717777843182,0.9808651831898124,0.2161324021852491,0.7485821503808605,-0.6268265699990717,1.0000000000000002,0.0,0.0,0.0,NAVIGATE,-1,0
3.4195410499733763,0.27805209379723006,0.5185237946266781,0.9845251397174997,0.8854475386566232,-0.46193217532207775,0.05100315371763842,1.000000000000002,0.0,0.0,0.0,NAVIGATE,-1,0
3.4983122851791366,0.21327358400785673,0.5607162991821502,0.969410751716467,-0.8223624984445621,0.5356334002540389,-0.19187699623539012,1.0000000000000009,0.0,0.0,0.0,NAVIGATE,-1,0
3.6796153222297683,0.37893323175931826,0.63043404849084,0.9455967268156847,0.91371689325424,0.38453712879183616,-0.131349288396817,0.9999999999999998,0.0,0.0,0.0,NAVIGATE,-1,0
3.8757056956790263,0.23717878192718198,0.6787757458495941,1.0721676192385974,-0.7229036659916291,0.24652764186439496,0.6454722391339887,1.0000000000000007,0.0,0.0,0.0,NAVIGATE,-1,0
3.9380111481968862,0.1991604117697825,0.6702892177633604,1.02354096209386,-0.6101933076643892,-0.13620843350429188,-0.7804558859563452,1.0000000000000022,0.0,0.0,0.0,NAVIGATE,-1,0
4.075224257066107,0.29153760306168636,0.6370088507887766,1.1193861964491088,0.6732388184568415,-0.24254509826975623,0.6985136853549474,1.0,0.0,0.0,0.0,NAVIGATE,-1,0
4.149016622639429,0.34980926873616586,0.6803926131550105,1.106441106284155,0.7896706552465598,0.5879166771408931,-0.17542587318319525,1.0000000000000033,0.0,0.0,0.0,NAVIGATE,-1,0
4.26072918002241,0.28635128538006727,0.6746933863784935,1.014678921046593,-0.5680470024381206,-0.0510168857470387,-0.8214133432016671,1.0000000000000002,0.0,0.0,0.0,NAVIGATE,-1,0
4.34019934410873,0.252159920836831,0.6117519553726701,0.9802575057137317,-0.4302415244304484,-0.7920133515448213,-0.43313633145985225,0.9999999999999979,0.0,0.0,0.0,NAVIGATE,-1,0
4.556941974666572,0.3215957321163767,0.6122264803883012,1.1855763086497852,0.3203606558656009,0.002189347865760171,0.9472931209131039,1.0000000000000018,0.0,0.0,0.0,NAVIGATE,-1,0
4.723856164480349,0.3713021899479906,0.7668362001488951,1.1470347808314139,0.297796477861291,0.9262826601686094,-0.23090623907632632,0.9999999999999997,0.0,0.0,0.0,NAVIGATE,-1,0
4.891448678924011,0.34817696014390953,0.6041786816578838,1.1139439010848182,-0.1379848609637924,-0.970553601579207,-0.1974484353101553,0.9999999999999979,0.0,0.0,0.0,NAVIGATE,-1,0
5.124667880006186,0.3091699962000472,0.820675312871783,1.191396216675271,-0.16725451319129678,0.9282967706317474,0.3321009386493968,0.9999999999999996,0.0,0.0,0.0,NAVIGATE,-1,0
5.255513098205332,0.30181824705970134,0.7159197888144484,1.1133404475762931,-0.056186609197720096,-0.8006064378898164,-0.5965504140944365,1.0000000000000007,0.0,0.0,0.0,NAVIGATE,-1,0
5.301366381885112,0.31750806826539457,0.7512775627866802,1.0887197052137998,0.34217442997680486,0.7711066936701002,-0.5369461113065438,1.0000000000000022,0.0,0.0,0.0,NAVIGATE,-1,0
5.4350462156410035,0.4050048975082132,0.7688797165245204,1.188242401164248,0.6545252697021876,0.13167396490021696,0.74448548561321,1.000000000000001,0.0,0.0,0.0,NAVIGATE,-1,0
5.597395406472032,0.3662134333399981,0.7707284079371979,1.0306065409951977,-0.23893845093807073,0.011387130439113928,-0.9709679448486851,1.0000000000000007,0.0,0.0,0.0,NAVIGATE,-1,0
5.7473898722292285,0.3817064686094978,0.8083588988933547,1.1749749993450864,0.10329071270255402,0.2508791958836072,0.9624919000917334,1.000000000000001,0.0,0.0,0.0,NAVIGATE,-1,0
5.85978886863204,0.44988399849568594,0.7678486497208844,1.0953240199225982,0.6065670697081306,-0.36041468757684497,-0.7086449343109598,1.0000000000000036,0.0,0.0,0.0,NAVIGATE,-1,0
5.945565494077727,0.3995737071533815,0.8366358725073447,1.0855863590521393,-0.5865268198754253,0.8019343548320811,-0.11352347821872141,1.000000000000001,0.0,0.0,0.0,NAVIGATE,-1,0
6.014060511412518,0.34042557408208174,0.8177796630623695,1.114526108865163,-0.8635392087309747,-0.27529315530806553,0.42250883259977295,1.0000000000000058,0.0,0.0,0.0,NAVIGATE,-1,0
6.084373751422508,0.2946924453934282,0.870728113716562,1.1075336676340903,-0.6504198737272853,0.7530367061263314,-0.09944700642552202,1.000000000000005,0.0,0.0,0.0,NAVIGATE,-1,0
6.1882717184172735,0.30197962157781905,0.9544500423562515,1.1686264108508897,0.07013781304073012,0.8058091131264116,0.5880071091273328,0.9999999999999967,0.0,0.0,0.0,NAVIGATE,-1,0
6.334719659826415,0.39914093053048816,0.9195380085982237,1.064761934322783,0.6634528831048795,-0.23839211000236504,-0.7092245580832973,1.0000000000000024,0.0,0.0,0.0,NAVIGATE,-1,0
6.441632931869038,0.45482692325585816,0.9645078910966755,1.1441799903373038,0.5208520108071282,0.42062020588541577,0.7428269147244774,1.0000000000000022,0.0,0.0,0.0,NAVIGATE,-1,0
6.48092607506788,0.427297695180927,0.9579045401988816,1.171428631789012,-0.700611502002277,-0.1680535167262584,0.6934706473803101,1.0000000000000078,0.0,0.0,0.0,NAVIGATE,-1,0
6.549779512483873,0.37117090528678587,0.9360055823766223,1.1380967409564182,-0.8151632220631031,-0.31805177263630185,-0.48409915442872975,1.0000000000000024,0.0,0.0,0.0,NAVIGATE,-1,0
6.7479784975855654,0.5014193852681638,1.0847836519741603,1.1516339919591807,0.6571601762468651,0.7506500072197776,0.06830131342911148,1.0000000000000022,0.0,0.0,0.0,NAVIGATE,-1,0
6.972596080647004,0.41214099043803065,0.9043673199566248,1.2512952882494432,-0.3974684154878171,-0.8032155344142721,0.4436932092845229,1.0,0.0,0.0,0.0,NAVIGATE,-1,0
7.116469818588277,0.40606117257701235,1.0049658150689615,1.1486179730084236,-0.04225801003029475,0.6992137449949324,-0.7136626649884578,0.9999999999999932,0.0,0.0,0.0,NAVIGATE,-1,0
7.166954376293784,0.44667912505672136,0.9955327398038257,1.1770765322502241,0.8045619160743457,-0.18685070631225378,0.5637082017794103,0.9999999999999934,0.0,0.0,0.0,NAVIGATE,-1,0
7.2651409439437815,0.5328579494808271,1.036523972014348,1.1539782385983108,0.8777048275208557,0.41748309561693253,-0.2352490183204191,1.0000000000000162,0.0,0.0,0.0,NAVIGATE,-1,0
7.3588668658560925,0.5019694171452602,0.9661244412657802,1.2075912321618922,-0.32956232070425373,-0.7511212406577641,0.5720188446238081,0.9999999999999942,0.0,0.0,0.0,NAVIGATE,-1,0
7.543980754179844,0.46860694503997136,1.1408264668054513,1.1562755486168155,-0.18022673721239188,0.9437542861945019,-0.27721141838547025,1.0000000000000013,0.0,0.0,0.0,NAVIGATE,-1,0
7.6116684482114625,0.5255684717170349,1.1073477813074384,1.1415722830182673,0.8415344545561816,-0.4946052007972731,-0.21722213777411292,1.0000000000000182,0.0,0.0,0.0,NAVIGATE,-1,0
7.68416157640809,0.5225118826927686,1.0570527603904176,1.1936906269120027,-0.04216384504715743,-0.693790186300179,0.7189418527004633,0.9999999999999861,0.0,0.0,0.0,NAVIGATE,-1,0
7.752430103919291,0.5120392247417782,1.0807764535982878,1.1305392083644492,-0.1534038938993085,0.3475055647564324,-0.9250443923401084,1.0000000000000189,0.0,0.0,0.0,NAVIGATE,-1,0
7.977412855852321,0.43053759760781063,1.1283357557172151,1.334776414142034,-0.36225722387033543,0.21139088090221383,0.907790504039972,1.0000000000000013,0.0,0.0,0.0,NAVIGATE,-1,0
8.206590033668792,0.6328971402551514,1.1358198787707605,1.2274601421531115,0.8829829591906099,0.03265649365635696,-0.46826770890277225,0.9999999999999927,0.0,0.0,0.0,NAVIGATE,-1,0
8.360299791610732,0.5205439647385534,1.2314997115175723,1.1844621975109735,-0.7309436760614574,0.6224707788750324,-0.2797346454632994,1.000000000000002,0.0,0.0,0.0,NAVIGATE,-1,0
8.41043729908864,0.5190760928152289,1.1932837391024633,1.1520406852007552,-0.029276922550870957,-0.7622232204492417,-0.6466518568858673,1.0000000000000016,0.0,0.0,0.0,NAVIGATE,-1,0
8.492212269793928,0.566753105265548,1.137369682165633,1.187924756242482,0.5830269584827386,-0.6837551448149247,0.438814844349511,0.9999999999999986,0.0,0.0,0.0,NAVIGATE,-1,0
8.552833487621356,0.5760652879868526,1.1242367703771545,1.1294804072273583,0.1536125972891836,-0.21663886439668936,-0.9640906453166009,0.999999999999998,0.0,0.0,0.0,NAVIGATE,-1,0
8.636201190012118,0.5906539699349288,1.0908000181755417,1.2044425827770338,0.1749920116509391,-0.4010756113307271,0.8991752609219377,0.9999999999999968,0.0,0.0,0.0,NAVIGATE,-1,0
8.739866919566865,0.5787268230706425,1.1844444035685024,1.1616050322381621,-0.1150539036913591,0.9033302113935959,-0.4132276956219051,1.0000000000000044,0.0,0.0,0.0,NAVIGATE,-1,0
8.847224068331714,0.5257253930698195,1.2269389760293639,1.2447351538557472,-0.4936926009176621,0.39582433913124526,0.774332427546763,0.999999999999998,0.0,0.0,0.0,NAVIGATE,-1,0
8.952182362984137,0.5286733572563406,1.2522868002217882,1.1429263087969328,0.02808700537945564,0.2415037732497981,-0.9699933235001723,0.9999999999999927,0.0,0.0,0.0,NAVIGATE,-1,0
9.078010649741303,0.6470975913503898,1.2224490871979405,1.1732276191479347,0.9411574864926391,-0.23713040837495464,0.24081477330673645,0.9999999999999949,0.0,0.0,0.0,NAVIGATE,-1,0
9.146231623984999,0.6142849982478445,1.2618200921549536,1.2182538229555016,-0.48097514681238196,0.5771099781772958,0.6600052887947101,0.99999999999999,0.0,0.0,0.0,NAVIGATE,-1,0
9.253804496758466,0.51701493666483,1.262309913845285,1.1723167121290172,-0.904224820581405,0.004553394156933852,-0.427032481722611,0.9999999999999972,0.0,0.0,0.0,NAVIGATE,-1,0
9.38299040264012,0.5734645062675201,1.2663217298248153,1.288447456131976,0.43696384073354805,0.031054594943240702,0.8989428313437329,0.9999999999999946,0.0,0.0,0.0,NAVIGATE,-1,0
9.508632362982752,0.6701215679927359,1.3074179686175817,1.2194951989210974,0.7693055843893801,0.3270900794662464,-0.5487995970680689,0.9999999999999979,0.0,0.0,0.0,NAVIGATE,-1,0
9.598075669422144,0.620327331838293,1.2859960469517053,1.148349289799437,-0.5567128289044637,-0.23950279253587461,-0.7954302222701221,0.9999999999999943,0.0,0.0,0.0,NAVIGATE,-1,0
9.685561493120387,0.5964212039894768,1.3014781569244374,1.2310691221870111,-0.27325716142621514,0.17696707098664446,0.9455227017452827,1.0000000000000018,0.0,0.0,0.0,NAVIGATE,-1,0
9.785549939318866,0.6415833120911533,1.388404170838953,1.251117600182411,0.4516732664494941,0.8693605833414588,0.200507946244141,1.0000000000000002,0.0,0.0,0.0,NAVIGATE,-1,0
9.845156035766232,0.6308490851845818,1.3329152002891755,1.232179879788001,-0.18008605740605857,-0.9309277717720659,-0.3177144876637312,0.9999999999999944,0.0,0.0,0.0,NAVIGATE,-1,0
9.910563234616367,0.6818252839516075,1.3464828140851426,1.1935088482971115,0.7793667923897097,0.2074330354225075,-0.5912350959944793,1.0000000000000107,0.0,0.0,0.0,NAVIGATE,-1,0
10.007494431414106,0.6775981901546522,1.396833882836982,1.276228606917535,-0.043609219081197914,0.5194516359568361,0.8533863333291,0.9999999999999956,0.0,0.0,0.0,NAVIGATE,-1,0
10.05382570534451,0.7077083979071097,1.362467826738807,1.2839056194468421,0.6498894849661856,-0.7417464097749059,0.1656982827806335,1.0000000000000138,0.0,0.0,0.0,NAVIGATE,-1,0
10.174187467174038,0.6339371618918743,1.4562803016910784,1.2995254142861545,-0.6129125637070654,0.7794209184569807,0.12977373047625512,1.000000000000007,0.0,0.0,0.0,NAVIGATE,-1,0
10.31642981227597,0.6423506133108924,1.323890632748798,1.248192441133703,0.05914871139806428,-0.930733171246639,-0.3608839063758806,0.9999999999999961,0.0,0.0,0.0,NAVIGATE,-1,0
10.441048110168998,0.6240552067523041,1.4470291614678792,1.2425443429129595,-0.1468115587190342,0.9881255866998235,-0.045323185408871265,0.9999999999999949,0.0,0.0,0.0,NAVIGATE,-1,0
10.50881275466278,0.6813689145189207,1.4128422325411978,1.2543103888066904,0.8457759676120805,-0.504495067923195,0.1736310428782774,0.9999999999999891,0.0,0.0,0.0,NAVIGATE,-1,0
10.543698093734076,0.6901493938537284,1.44638383022745,1.2504566517341946,0.25169539894288434,0.9614812003891415,-0.1104686717999154,0.9999999999999999,0.0,0.0,0.0,NAVIGATE,-1,0
10.641196832730747,0.6580858741479004,1.3560508501055484,1.2326272515112102,-0.32886086564588835,-0.9265040866321911,-0.18286800841181178,1.000000000000008,0.0,0.0,0.0,NAVIGATE,-1,0
10.788645127748167,0.7623216779048595,1.4212349749672826,1.3140331897755322,0.7069312245668551,0.44208123840315344,0.5520981999466651,1.0000000000000033,0.0,0.0,0.0,NAVIGATE,-1,0
10.819335827509713,0.7648518793019025,1.4035243354986868,1.2890962616897144,0.08244195853146223,-0.5770686105628041,-0.8125239332946822,1.0000000000000249,0.0,0.0,0.0,NAVIGATE,-1,0
10.933567876232582,0.772681521339331,1.515838580787855,1.269778705785453,0.0685415531364892,0.9832113364406754,-0.16910802283802542,1.0000000000000036,0.0,0.0,0.0,NAVIGATE,-1,0
11.020644101152516,0.7130389754433211,1.4590666948244024,1.2414593020222728,-0.6849463897964143,-0.6519791827867288,-0.32522544229747485,0.9999999999999902,0.0,0.0,0.0,NAVIGATE,-1,0
11.086660617802597,0.6984717032824654,1.5132094409813748,1.206609078335995,-0.22066102393843734,0.8201393969929561,-0.5279015836446038,1.0000000000000049,0.0,0.0,0.0,NAVIGATE,-1,0
11.202844225289386,0.781366174195532,1.5340623729201446,1.2853001996283235,0.7134781980538188,0.17948256548275027,0.6772996896423286,0.9999999999999943,0.0,0.0,0.0,NAVIGATE,-1,0
11.313004674046875,0.8571588704483499,1.4564724893108978,1.2660491833776732,0.6880209467889051,-0.7043352172616522,-0.17475433758471898,0.9999999999999971,0.0,0.0,0.0,NAVIGATE,-1,0
11.449075038452134,0.7360505719174042,1.513686106312624,1.290018457999557,-0.8900417005590398,0.4204708148743261,0.17615352708614676,0.9999999999999984,0.0,0.0,0.0,NAVIGATE,-1,0
11.582560878734641,0.867553605561277,1.5098230360418634,1.267424246650887,0.9851459403151842,-0.0289399254826187,-0.16926298175785648,0.9999999999999942,0.0,0.0,0.0,NAVIGATE,-1,0
11.744974985168524,0.8604737231527892,1.6416936523109928,1.1728813579780812,-0.04359154856644153,0.8119406569084758,-0.5821100811295201,1.000000000000002,0.0,0.0,0.0,NAVIGATE,-1,0
11.853864070995813,0.836264834674786,1.5654157135338544,1.24672198898076,-0.22232612473578198,-0.7005104156914655,0.6781270174294436,1.0000000000000067,0.0,0.0,0.0,NAVIGATE,-1,0
11.895639485192754,0.8607763032895679,1.5931158397670835,1.2661404375371121,0.5867438800062628,0.6630724498060708,0.46482958768064336,0.9999999999999925,0.0,0.0,0.0,NAVIGATE,-1,0
11.945407755575324,0.8271626838463866,1.6107532065365135,1.2983262825352198,-0.6754026046071641,0.3543897875865725,0.6467141564433369,1.0000000000000069,0.0,0.0,0.0,NAVIGATE,-1,0
12.052996992294709,0.9312478866988835,1.6015457460373408,1.2726954987748567,0.9674313716340711,-0.08557975481495204,-0.23822814011789684,0.9999999999999999,0.0,0.0,0.0,NAVIGATE,-1,0
12.097299520207885,0.921129823463195,1.5584764269399947,1.2703776272626044,-0.2283856861513118,-0.9721639176381299,-0.05231917051764651,0.9999999999999883,0.0,0.0,0.0,NAVIGATE,-1,0
12.212038711400526,0.8256414836792682,1.6014301077806434,1.223451725426939,-0.8322207851684038,0.37435927858801094,-0.40897884452470523,1.0000000000000067,0.0,0.0,0.0,NAVIGATE,-1,0
12.38236580139815,0.9400956258150309,1.672442445985618,1.3277053333150493,0.6719667560653999,0.4169174627827269,0.6120788413021356,1.000000000000004,0.0,0.0,0.0,NAVIGATE,-1,0
12.526561949633704,0.8765732693952946,1.5824065863665255,1.4207159960559692,-0.440527414892998,-0.6243985066231629,0.6450287603312437,1.0000000000000022,0.0,0.0,0.0,NAVIGATE,-1,0
12.762970450529236,0.8892538509020259,1.6882450698283444,1.2097032060008968,0.053638432876552275,0.44769322194800626,-0.8925769981017649,0.9999999999999987,0.0,0.0,0.0,NAVIGATE,-1,0
12.90351172704233,0.9523147955657969,1.6228973827296367,1.316963857932965,0.44870052576970654,-0.4649714925039792,0.7631967959396964,1.0000000000000038,0.0,0.0,0.0,NAVIGATE,-1,0
12.957407163843449,0.9308330545556093,1.6222466036615484,1.36638884551778,-0.39858181481037297,-0.0120748454176142,0.917053289078995,0.9999999999999962,0.0,0.0,0.0,NAVIGATE,-1,0
13.084077274413398,0.8425509628841182,1.6585520226663657,1.2831211702002,-0.6969449325832926,0.28661393632216875,-0.6573585113561479,0.9999999999999947,0.0,0.0,0.0,NAVIGATE,-1,0
13.197601685095345,0.9039338186466813,1.5658068361566324,1.305886653247799,0.5407018225757179,-0.8169625013035355,0.20053381392465047,0.9999999999999993,0.0,0.0,0.0,NAVIGATE,-1,0
13.364516285466628,0.8013245164290974,1.6877365902275452,1.256238390561852,-0.6147413227443288,0.7304918431323153,-0.2974470931572787,1.0000000000000044,0.0,0.0,0.0,NAVIGATE,-1,0
13.528463667486426,0.8994682933627315,1.6143824550052397,1.3651682485721055,0.5986297293956347,-0.44742486472548637,0.6644196245664952,0.9999999999999966,0.0,0.0,0.0,NAVIGATE,-1,0
13.614958001269123,0.8998031306199725,1.6646233973509017,1.2947622447603304,0.003871204535574096,0.5808581920739908,-0.8139955617053287,0.9999999999999976,0.0,0.0,0.0,NAVIGATE,-1,0
13.653215479940696,0.8741361975043238,1.655817089967753,1.267793889804638,-0.6708997562539377,-0.23018525237242624,-0.7049172055274777,1.0000000000000093,0.0,0.0,0.0,NAVIGATE,-1,0
13.794726211279155,0.9821583201510801,1.7461054071178561,1.282095214534769,0.7633493348882086,0.6380315916406086,0.10106176821265882,0.9999999999999939,0.0,0.0,0.0,NAVIGATE,-1,0
13.98062403665505,0.9109208272455793,1.6957321281253108,1.4462468330085576,-0.38320777965775044,-0.2709729330651827,0.8830206493371612,0.9999999999999963,0.0,0.0,0.0,NAVIGATE,-1,0
14.107236293907066,0.9559825755079763,1.8005071672576276,1.3912714411972344,0.35590352182651086,0.8275268240717497,-0.4342027620745817,0.999999999999993,0.0,0.0,0.0,NAVIGATE,-1,0
14.177463099827207,1.0061519383302502,1.7545020429863991,1.3739981136503792,0.7143904975448305,-0.6550935026653993,-0.24596487510051007,0.9999999999999908,0.0,0.0,0.0,NAVIGATE,-1,0
14.255355248237127,1.014945435738829,1.6851507323434245,1.3396432464647892,0.1128932451869436,-0.8903504661086348,-0.44105687013269,0.9999999999999736,0.0,0.0,0.0,NAVIGATE,-1,0
14.324167766133252,1.0493413818831572,1.7443009299567536,1.3323401217673991,0.49985013186481414,0.8595848462138544,-0.10613075819161737,1.0000000000000477,0.0,0.0,0.0,NAVIGATE,-1,0
14.374729423811232,1.0524518132963518,1.7647856779373543,1.2862187433866517,0.061517591709603005,0.40514391579218584,-0.9121808994967736,0.9999999999999591,0.0,0.0,0.0,NAVIGATE,-1,0
14.518932269805994,0.9717273640052967,1.7323373188167315,1.4012193002114959,-0.5597978925740985,-0.22501885380127265,0.7974915892368819,1.000000000000004,0.0,0.0,0.0,NAVIGATE,-1,0
14.633598076513865,1.0564901192532712,1.8088552400571523,1.390801513508771,0.7392156186884988,0.6673124572817272,-0.0908534723805312,0.9999999999999984,0.0,0.0,0.0,NAVIGATE,-1,0
14.713051772282064,1.1172866620041002,1.7592248363884408,1.378412276548691,0.7651820618665569,-0.6246456277314598,-0.15593027914302066,1.0000000000000024,0.0,0.0,0.0,NAVIGATE,-1,0
14.840030080779098,1.0061274251274566,1.8063776719361253,1.3391220107620698,-0.8754191026197247,0.3713455952107446,-0.3094250211053891,1.0000000000000082,0.0,0.0,0.0,NAVIGATE,-1,0
14.894456097520663,0.9624464937961263,1.7761853264574763,1.3271809132045385,-0.8025744661554589,-0.5547410464008985,-0.2194005417341485,0.9999999999999607,0.0,0.0,0.0,NAVIGATE,-1,0
14.975561068068636,1.0408779801461683,1.7605378459399945,1.3406595833898993,0.9670367404134715,-0.19292874914770478,0.16618796720218784,1.0000000000000027,0.0,0.0,0.0,NAVIGATE,-1,0
15.108812646457693,1.1105056825136073,1.803342620913868,1.4459008179210582,0.5225281622116752,0.3212327800643058,0.7897935304292162,0.9999999999999993,0.0,0.0,0.0,NAVIGATE,-1,0
15.186334897395074,1.064088551031664,1.8161139909894888,1.3851386471091318,-0.5987588198314421,0.16474457231558962,-0.7838029736908333,0.9999999999999905,0.0,0.0,0.0,NAVIGATE,-1,0
15.260674658430139,1.1157157275550071,1.76340739774712,1.3942518103229573,0.6944759547853768,-0.7089960003706246,0.12258800791042375,1.0000000000000246,0.0,0.0,0.0,NAVIGATE,-1,0
15.306375809565926,1.0937925138972637,1.7862748930879988,1.3613117803459256,-0.47970812797701684,0.5003702264070905,-0.7207702466653414,0.999999999999957,0.0,0.0,0.0,NAVIGATE,-1,0
15.416118522130608,1.1529368340145347,1.849529441078621,1.4287230147020957,0.5389361966281969,0.5763895069874483,0.6142661574584131,1.000000000000012,0.0,0.0,0.0,NAVIGATE,-1,0
15.561382630207303,1.0519439910558426,1.7515955189835049,1.4649314898081516,-0.6952360379714092,-0.6741783871581674,0.24925961123816512,0.9999999999999859,0.0,0.0,0.0,NAVIGATE,-1,0
15.677925723836312,1.0788870754326372,1.8553689388116164,1.4192429768747743,0.23118559442537595,0.8904295964414092,-0.3920310634520946,1.0000000000000027,0.0,0.0,0.0,NAVIGATE,-1,0
15.818410464657466,1.1894999335895735,1.7983657439058756,1.3540402638600646,0.7873656420646649,-0.4057607578769661,-0.4641266562730587,1.0000000000000009,0.0,0.0,0.0,NAVIGATE,-1,0
15.931681770658045,1.1495784433646346,1.9017025432368084,1.377665870420213,-0.35244133430168956,0.91229458703694,0.20857538766285275,0.9999999999999827,0.0,0.0,0.0,NAVIGATE,-1,0
16.002191887472712,1.0816318783731662,1.912837763762392,1.392862835344994,-0.9636427800859165,0.15792372823394918,0.21552885757835016,1.0000000000000264,0.0,0.0,0.0,NAVIGATE,-1,0
16.102413294265524,1.162315884251637,1.8540617018083723,1.3839299681619148,0.8050576065577377,-0.5864621524972946,-0.08913132901383242,1.0000000000000027,0.0,0.0,0.0,NAVIGATE,-1,0
16.159337689494407,1.1606463550534063,1.7972916425230943,1.3877718183901708,-0.029328887755729872,-0.9972887556734794,0.06749040043040606,1.0000000000000009,0.0,0.0,0.0,NAVIGATE,-1,0
16.27121456847766,1.1381404792025542,1.8969023010268709,1.3420811375497224,-0.20116646134024718,0.8903596472215453,-0.4084014611033974,1.0000000000000107,0.0,0.0,0.0,NAVIGATE,-1,0
16.31067483686799,1.1659224401821746,1.897274976146973,1.3701014255357258,0.7040489614720782,0.009444312857066702,0.7100886316543888,1.0000000000000282,0.0,0.0,0.0,NAVIGATE,-1,0
16.349933926548363,1.1437673901670216,1.928049911242938,1.3802667219503426,-0.5643291832675436,0.7838932422151695,0.2589284799361612,1.000000000000037,0.0,0.0,0.0,NAVIGATE,-1,0
16.457679261635697,1.2320801540532473,1.866339540357023,1.3789464594840126,0.8196435030309527,-0.572742855511055,-0.012253546432055245,0.9999999999999856,0.0,0.0,0.0,NAVIGATE,-1,0
16.550823013287136,1.186699286141069,1.8744861042895906,1.459878336981914,-0.4872132280220118,0.0874622697510986,0.8688921807741113,1.0000000000000169,0.0,0.0,0.0,NAVIGATE,-1,0
16.699516499451764,1.2164672694810466,1.998176536325484,1.3829088818816235,0.20019695622052644,0.8318483561475423,-0.5176383786918042,1.0000000000000058,0.0,0.0,0.0,NAVIGATE,-1,0
16.811211842493307,1.2041606373529132,1.9031227561524393,1.4402602143652319,-0.11018035123949722,-0.8510093400912099,0.5134621634339552,1.0000000000000064,0.0,0.0,0.0,NAVIGATE,-1,0
16.94247367838287,1.3282697574403741,1.9457865349992092,1.437730817850417,0.9455080316862163,0.3250280521953436,-0.019269854772891257,1.000000000000005,0.0,0.0,0.0,NAVIGATE,-1,0
17.098947930696383,1.17312484698806,1.9510024696438741,1.4574042116501247,-0.9915044050919379,0.03333414007445982,0.12572927180562712,0.9999999999999973,0.0,0.0,0.0,NAVIGATE,-1,0
17.161174422058632,1.2315454147694391,1.9382191541495415,1.4402065277267069,0.938837567448336,-0.20543204693825662,-0.2763723865339291,1.000000000000005,0.0,0.0,0.0,NAVIGATE,-1,0
17.265081860842315,1.2308002748499054,1.9859485412363138,1.3479129406829367,-0.0071711893609945005,0.45934523692896184,-0.8882288710427123,0.9999999999999932,0.0,0.0,0.0,NAVIGATE,-1,0
17.300099019753574,1.2301578348433464,2.008343653750881,1.3748247898300006,-0.018346434334866407,0.6395468167854825,0.7685331986887977,1.000000000000041,0.0,0.0,0.0,NAVIGATE,-1,0
17.415206589787978,1.2150823784782365,1.9233209039067125,1.4509405917606408,-0.1309684181553313,-0.738637344344569,0.661258003343225,0.9999999999999878,0.0,0.0,0.0,NAVIGATE,-1,0
17.474116798552554,1.2469101649283139,1.8757712675149598,1.4369250009637284,0.5402762461302957,-0.807154437048016,-0.23791446492615725,1.0000000000000215,0.0,0.0,0.0,NAVIGATE,-1,0
17.537115507489773,1.2347883915836375,1.8467304040378942,1.4915008947928112,-0.19241304384120486,-0.4609755337368306,0.8663017822074803,1.0000000000000249,0.0,0.0,0.0,NAVIGATE,-1,0
17.667986983354368,1.3020696324495746,1.954584198558312,1.460385997555879,0.5141016437802624,0.8241199528612926,-0.23775155763601968,1.0000000000000102,0.0,0.0,0.0,NAVIGATE,-1,0
17.73903837806393,1.2532338052893042,1.9311788477285483,1.5063811302144798,-0.687331013837188,-0.3294143756844965,0.6473501730207398,1.0000000000000224,0.0,0.0,0.0,NAVIGATE,-1,0
17.86002813978156,1.2417225560371017,2.029761102142633,1.4371889869048624,-0.0951423417054748,0.8147983185896469,-0.5718842844826975,1.000000000000002,0.0,0.0,0.0,NAVIGATE,-1,0
17.946242427924478,1.270618074990437,1.9488746788511624,1.4297499687222988,0.33515928247803395,-0.9382020664299122,-0.08628521261153171,0.9999999999999826,0.0,0.0,0.0,NAVIGATE,-1,0
18.035158809328767,1.3320076380905657,1.887082983483788,1.4118829374066713,0.6904190446190108,-0.6949416338302992,-0.20094195280382496,0.9999999999999839,0.0,0.0,0.0,NAVIGATE,-1,0
18.147651556157722,1.2269232550166942,1.9231728203122487,1.3942927639907499,-0.9341436317992261,0.32081923364654896,-0.15636717843388717,0.9999999999999911,0.0,0.0,0.0,NAVIGATE,-1,0
18.30516913917044,1.3834282058085972,1.9407753609844565,1.3914397133995577,0.9935713067617689,0.1117496874668678,-0.01811258487226622,0.9999999999999933,0.0,0.0,0.0,NAVIGATE,-1,0
18.483023023672875,1.2862481161457504,2.0426587926878446,1.5001034182419162,-0.5464040885849609,0.572849066459352,0.6109717825188801,1.0000000000000053,0.0,0.0,0.0,NAVIGATE,-1,0
18.57452804776351,1.3563671213197017,2.02466822374636,1.444131693448006,0.7662858501025871,-0.19660744445752945,-0.6116792531355392,1.000000000000008,0.0,0.0,0.0,NAVIGATE,-1,0
18.615015630398698,1.3418363728174616,1.990870143994527,1.4610370624381959,-0.3588939510953105,-0.834776431489379,0.41754453809988146,0.9999999999999941,0.0,0.0,0.0,NAVIGATE,-1,0
18.70261163860763,1.3407213448987003,1.9110839348402593,1.424898742116528,-0.012729209259190456,-0.9108429800129952,-0.4125567027605976,1.0000000000000069,0.0,0.0,0.0,NAVIGATE,-1,0
18.79574677903531,1.2936267738010576,1.9819604842981704,1.4627506970535238,-0.5056584537413518,0.7610075974808845,0.40641969038946535,0.9999999999999958,0.0,0.0,0.0,NAVIGATE,-1,0
18.845160281898032,1.3219397827140467,2.0210668349551986,1.4732750084204012,0.5729812151072545,0.7914102095872514,0.2129845236051199,1.0000000000000113,0.0,0.0,0.0,NAVIGATE,-1,0
18.928806441825344,1.3990252550553757,2.0475083353773127,1.4921259256375283,0.9215661831734494,0.3161113486272601,0.22536500460401848,0.9999999999999971,0.0,0.0,0.0,NAVIGATE,-1,0
19.043292167858915,1.4377391422788723,1.9405229275304587,1.5048671543585843,0.3381547077069189,-0.9344868705770543,0.11129098065307996,0.999999999999986,0.0,0.0,0.0,NAVIGATE,-1,0
19.18908837960009,1.3984899123342718,2.0790078948814257,1.4816734671865346,-0.26920610265428524,0.949852987928198,-0.15908292057151951,0.9999999999999996,0.0,0.0,0.0,NAVIGATE,-1,0
19.337614629831684,1.4206586945870536,1.9393977801185391,1.4360926822308018,0.14925834469135593,-0.9399692952942341,-0.3068870646411634,1.000000000000006,0.0,0.0,0.0,NAVIGATE,-1,0
19.467563762425257,1.4014842444811693,2.006580969387483,1.545662461844582,-0.14755350592338348,0.5169960578272196,0.8431743823675129,1.0000000000000022,0.0,0.0,0.0,NAVIGATE,-1,0
19.57757145851331,1.476277974585291,1.9820736298574861,1.4688055724664972,0.6798954324455083,-0.22277840916130515,-0.6986501136844612,1.0000000000000087,0.0,0.0,0.0,NAVIGATE,-1,0
19.696176436156417,1.383269684524257,1.9437561464008832,1.531641622335954,-0.7841853850426539,-0.32306808886136407,0.5297926876099313,0.9999999999999919,0.0,0.0,0.0,NAVIGATE,-1,0
19.902989720711705,1.4054369365972845,2.122242250055308,1.4295482415204517,0.10718485575379738,0.8630301677100893,-0.4936500139970904,0.9999999999999974,0.0,0.0,0.0,NAVIGATE,-1,0
19.988324739282337,1.444178818685052,2.048148312427409,1.4124830613707815,0.4539974647770273,-0.8682711841982109,-0.19997863052605205,1.0000000000000033,0.0,0.0,0.0,NAVIGATE,-1,0
20.14122195564345,1.4994405727690434,1.9940483839722907,1.5443803511370533,0.36143074020049304,-0.3538320038956474,0.8626533098860201,0.9999999999999957,0.0,0.0,0.0,NAVIGATE,-1,0
20.312289454349372,1.3943432376138545,2.049700405052488,1.4214108760366493,-0.614361792568548,0.3253220015560463,-0.7188359918197949,1.00000000000001,0.0,0.0,0.0,NAVIGATE,-1,0
20.43733117880182,1.4391802267056306,1.9663913499017653,1.5031707598007518,0.35857622156216534,-0.6662500498575931,0.6538608142372111,0.9999999999999966,0.0,0.0,0.0,NAVIGATE,-1,0
20.569838156128323,1.4854568427342187,2.0884911296573327,1.4806270770317078,0.3492390888561312,0.9214592485549475,-0.1701320430357055,1.0000000000000062,0.0,0.0,0.0,NAVIGATE,-1,0
20.65423898293823,1.4656024298822792,2.006478768292115,1.4824366183552535,-0.23523955395196175,-0.9717009236169024,0.021439853043397995,0.9999999999999908,0.0,0.0,0.0,NAVIGATE,-1,0
20.750067181920873,1.561214632223887,2.0107704778366924,1.4776479115539174,0.9977460012467472,0.044785455535431805,-0.04997179172910886,1.0000000000000038,0.0,0.0,0.0,NAVIGATE,-1,0
20.822578499392787,1.5527503298441547,1.9500756622386755,1.4388872858332227,-0.11673077630965208,-0.8370392059353485,-0.534545876038012,0.9999999999999892,0.0,0.0,0.0,NAVIGATE,-1,0
20.99112691482641,1.4496002663959369,2.0595889841440815,1.5148837665481678,-0.6119907041715262,0.6497440015894671,0.4508881351357097,1.000000000000006,0.0,0.0,0.0,NAVIGATE,-1,0
21.04576796833846,1.4941357267755744,2.06456440268867,1.5461484864091621,0.8150549361171459,0.09105641682935409,0.5721836943370698,0.9999999999999716,0.0,0.0,0.0,NAVIGATE,-1,0
21.164218113650353,1.5931025477269678,2.1201300567495323,1.5122595005292074,0.8355145592333549,0.46910583279194346,-0.28610337109102707,0.99999999999999,0.0,0.0,0.0,NAVIGATE,-1,0
21.221678776106867,1.5813934928825104,2.0641167196885815,1.5174683234180502,-0.20377514535825025,-0.9748118915848205,0.09065024081100329,1.0000000000000224,0.0,0.0,0.0,NAVIGATE,-1,0
21.350536406358383,1.491917463089883,2.0403766983448066,1.6071050366173998,-0.6943789794828558,-0.18423450204257813,0.6956259635101782,0.9999999999999963,0.0,0.0,0.0,NAVIGATE,-1,0
21.518277940687007,1.5556259508434693,1.9720871447989845,1.4677673611538533,0.3798015083656895,-0.40711177359350736,-0.83066889796399,1.0000000000000069,0.0,0.0,0.0,NAVIGATE,-1,0
21.652280158694374,1.6019469625782228,2.0936326731840134,1.4999798250826997,0.3456734703615631,0.9070411683659316,0.2403875428918297,1.000000000000006,0.0,0.0,0.0,NAVIGATE,-1,0
21.778885113170666,1.5217003943058374,2.004336551144688,1.5401731748707808,-0.633834344037557,-0.705313014081505,0.317470591528925,0.9999999999999915,0.0,0.0,0.0,NAVIGATE,-1,0
21.897782002199925,1.4141156584988106,2.043669158730871,1.5720313107647619,-0.9048574498913252,0.33081275639183433,0.26794759857965134,0.9999999999999986,0.0,0.0,0.0,NAVIGATE,-1,0
22.094457299880617,1.5589976245395625,2.047551138479941,1.439082753543623,0.7366556336727769,0.019738013847436158,-0.67597994658681,0.9999999999999942,0.0,0.0,0.0,NAVIGATE,-1,0
22.239109130134132,1.5279207520661318,2.0144959667021287,1.5764353494845125,-0.21483912383939904,-0.22851540640640572,0.9495392882355284,0.9999999999999996,0.0,0.0,0.0,NAVIGATE,-1,0
22.382074513379592,1.6256705332376786,2.102771171733036,1.520833467644171,0.6837304174795801,0.6174585975078006,-0.38891849605912854,0.9999999999999977,0.0,0.0,0.0,NAVIGATE,-1,0
22.445660872496326,1.5817071164739014,2.0588777051638147,1.5072759367217217,-0.6913969815926712,-0.6902968998215541,-0.21321445528214766,0.999999999999984,0.0,0.0,0.0,NAVIGATE,-1,0
22.552008030420026,1.6068117872738357,2.0162053808487106,1.6013957871254612,0.23606339172642343,-0.40125495733247313,0.8850245953095107,1.0000000000000153,0.0,0.0,0.0,NAVIGATE,-1,0
22.64027942139685,1.5891692074848816,2.06697675209398,1.5313754636097217,-0.1998674722774683,0.5751735719062026,-0.7932391541685674,0.9999999999999941,0.0,0.0,0.0,NAVIGATE,-1,0
22.68423784825131,1.584732065393284,2.0467112970106203,1.4926202524524845,-0.10093951055820156,-0.46101411113859847,-0.8816332596603301,0.9999999999999701,0.0,0.0,0.0,NAVIGATE,-1,0
22.77393232154455,1.5732368305981639,2.0660703197226615,1.579442981941895,-0.12815990075039035,0.21583294935854774,0.9679830462414336,1.0000000000000022,0.0,0.0,0.0,NAVIGATE,-1,0
22.91621387564021,1.6500759607699074,2.103277445826626,1.4656211102413716,0.5400498375220305,0.2615035121063481,-0.7999763034918573,1.0000000000000113,0.0,0.0,0.0,NAVIGATE,-1,0
22.988817594824592,1.693974462102642,2.116910284033426,1.5218204638192547,0.6046315784629618,0.18777052139957576,0.7740561256257531,1.0000000000000164,0.0,0.0,0.0,NAVIGATE,-1,0
23.18341214974543,1.6366654202742081,2.0063668412347844,1.3722782898890604,-0.29450485832837325,-0.5680705857551456,-0.7684807727072822,0.9999999999999954,0.0,0.0,0.0,NAVIGATE,-1,0
23.357727599119194,1.6936748818541687,2.043490655723002,1.5327700952206271,0.32704767009906066,0.21296915804988212,0.9206975394788004,1.0000000000000084,0.0,0.0,0.0,NAVIGATE,-1,0
23.419383106916705,1.682629251136495,2.096091374691598,1.5629787040565926,-0.17915075412158996,0.8531390113815572,0.48995799264482054,0.9999999999999886,0.0,0.0,0.0,NAVIGATE,-1,0
23.472958144083936,1.6710071892717102,2.0688886537416318,1.6076466372794251,-0.2169305422692898,-0.5077499221335972,0.8337452586995723,0.9999999999999694,0.0,0.0,0.0,NAVIGATE,-1,0
23.618996290485526,1.6737762307500488,2.0998528348386407,1.4649557402232538,0.018961083433118742,0.21202803418129215,-0.9770796231813682,0.9999999999999927,0.0,0.0,0.0,NAVIGATE,-1,0
23.77399128786429,1.6787847810332122,2.059979157992672,1.614650274296102,0.03231427057561009,-0.2572578310287554,0.9658023588144349,0.9999999999999899,0.0,0.0,0.0,NAVIGATE,-1,0
23.848131428359608,1.6834173322533248,2.0593871875143437,1.540657372793246,0.06248371245540427,-0.007984480126063002,-0.9980140448685836,1.0000000000000222,0.0,0.0,0.0,NAVIGATE,-1,0
23.922027816149747,1.741580582509392,2.059387683986719,1.5862393039484104,0.7870919268915689,6.718493150449359e-06,0.6168357144142703,0.9999999999999921,0.0,0.0,0.0,NAVIGATE,-1,0
24.020216854227435,1.71127195333406,1.970222179834601,1.5584546487331195,-0.3086763020465844,-0.9081003938705389,-0.28297105012178075,1.0000000000000027,0.0,0.0,0.0,NAVIGATE,-1,0
24.108418704054436,1.7644943994354183,2.01833727039351,1.6097564577109806,0.603416438609265,0.5455111276382731,0.5816409642029532,1.000000000000005,0.0,0.0,0.0,NAVIGATE,-1,0
24.234536703000156,1.6879340873295248,2.09644772395036,1.5469629444037643,-0.6070530197584607,0.6193442189839069,-0.4978949383286858,0.9999999999999888,0.0,0.0,0.0,NAVIGATE,-1,0
24.3215214593965,1.7241465187767364,2.0185275902214452,1.5605077003513657,0.4163077871047954,-0.8957906759418122,0.1557141332428989,0.9999999999999838,0.0,0.0,0.0,NAVIGATE,-1,0
24.469693161255314,1.7077009301732826,2.160908518250197,1.5980851827164015,-0.11099007703322472,0.9609184901204673,0.2536076855001752,0.9999999999999977,0.0,0.0,0.0,NAVIGATE,-1,0
24.635555310708455,1.7844024146041795,2.015210250709971,1.6180639149857412,0.4624411578156156,-0.8784298769828064,0.1204538367265287,1.0000000000000084,0.0,0.0,0.0,NAVIGATE,-1,0
24.73959892609944,1.830985837526509,2.066476599690408,1.5404313182580607,0.44772975974809914,0.492739018994903,-0.7461543549399474,0.9999999999999994,0.0,0.0,0.0,NAVIGATE,-1,0
24.804361823907872,1.8598978438476126,2.0922962742303213,1.4885499802868145,0.4464285462739036,0.39868003770133015,-0.80109661128368,0.9999999999999802,0.0,0.0,0.0,NAVIGATE,-1,0
25.015461222996784,1.6921393842367431,1.997415376577654,1.5746758810676642,-0.7946894227785649,-0.44946076617065545,0.40798742749890393,1.0000000000000073,0.0,0.0,0.0,NAVIGATE,-1,0
25.19829332267455,1.7705633626597914,2.043627978363465,1.4161146887251843,0.42893987741357537,0.25275978270368654,-0.8672502947892408,1.0000000000000064,0.0,0.0,0.0,NAVIGATE,-1,0
25.327110972865313,1.84930113426949,2.1061785468939727,1.496624170769966,0.6112343416690081,0.48557451900324655,0.6249879727316715,1.0000000000000122,0.0,0.0,0.0,NAVIGATE,-1,0
25.500539983704112,1.8106495454286617,1.9988777888793756,1.6272772373627409,-0.2228669162897707,-0.6187013204747643,0.7533518525007111,0.999999999999991,0.0,0.0,0.0,NAVIGATE,-1,0
25.606026347183164,1.89647569205062,1.976579721529149,1.5701454456132662,0.8136231432321768,-0.21138341122788523,-0.5416035766634435,0.9999999999999896,0.0,0.0,0.0,NAVIGATE,-1,0
25.67289268871534,1.8801328507672208,1.9752591117771001,1.6349704034502461,-0.2444105795071067,-0.019749992623917748,0.9694706836291662,1.0000000000000238,0.0,0.0,0.0,NAVIGATE,-1,0
25.78195084198475,1.807372041419773,2.0147216521345603,1.705979229142367,-0.6671744126063204,0.36184860255220913,0.651109738826277,0.9999999999999989,0.0,0.0,0.0,NAVIGATE,-1,0
25.926252724558584,1.8347946773761226,2.0134425537007985,1.5643127325429411,0.1900365779519079,-0.008864045367581135,-0.9817369951978235,1.0000000000000007,0.0,0.0,0.0,NAVIGATE,-1,0
25.99022252678435,1.8585302978170026,2.072511980243084,1.5706023086062018,0.3710441429396732,0.9233954848541414,0.09832101779935179,0.9999999999999759,0.0,0.0,0.0,NAVIGATE,-1,0
26.058945306129964,1.8697753092140874,2.043682037145271,1.6319635708213984,0.1636285887177612,-0.41951072660820027,0.8928809748308534,1.0000000000000007,0.0,0.0,0.0,NAVIGATE,-1,0
26.16061528735084,1.9417724404664902,2.0269950164319677,1.5621442216938746,0.708145417042915,-0.16412927899584162,-0.6867253075993246,0.9999999999999829,0.0,0.0,0.0,NAVIGATE,-1,0
26.22660818009601,1.888839068500099,2.023528983670467,1.6014011528276206,-0.802107162824197,-0.052521303693785805,0.594866045429086,1.0000000000000087,0.0,0.0,0.0,NAVIGATE,-1,0
26.366241182078255,1.949148363000652,1.903751660719398,1.5624966910514444,0.4319128976989424,-0.8578009585892916,-0.27861938957040766,0.9999999999999957,0.0,0.0,0.0,NAVIGATE,-1,0
26.460409718377655,1.9043687970474492,1.9712811867455482,1.6104786336600712,-0.4755257723326054,0.7171134720778374,0.5095326368466959,0.9999999999999996,0.0,0.0,0.0,NAVIGATE,-1,0
26.5229988372557,1.9249664866650404,2.0193444092211448,1.5760829997858605,0.329093778388638,0.7679165857766488,-0.5495465424466346,1.0000000000000129,0.0,0.0,0.0,NAVIGATE,-1,0
26.592383177196602,1.9750294729702067,2.0521259926231386,1.611200685086885,0.7215314918006913,0.4724637206308342,0.5061327286666588,1.0000000000000098,0.0,0.0,0.0,NAVIGATE,-1,0
26.72857087151301,1.9040750252190115,1.943644735479657,1.5694350140625566,-0.5210048390006873,-0.7965569700551953,-0.3066772753145604,1.000000000000004,0.0,0.0,0.0,NAVIGATE,-1,0
26.86157780273122,1.8833205806973334,2.0722180874840688,1.596434827747682,-0.15604032309886756,0.966666555094614,0.20299553893796848,1.0000000000000018,0.0,0.0,0.0,NAVIGATE,-1,0
26.949506713267724,1.9465864204184133,2.0158552341845555,1.6199328191610123,0.719511243060545,-0.641004795301241,0.2672385142719897,1.0000000000000084,0.0,0.0,0.0,NAVIGATE,-1,0
27.116102322980563,1.8714905121552408,1.8711435569785846,1.5856803416162246,-0.45076763062733344,-0.8686404008809728,-0.2056025222022874,0.9999999999999897,0.0,0.0,0.0,NAVIGATE,-1,0
27.370445304382816,2.01074434539186,2.0836561430627274,1.5973902892388547,0.5475041318965428,0.835535484063726,0.046039987256854494,1.0000000000000016,0.0,0.0,0.0,NAVIGATE,-1,0
27.44758914805346,1.9809469007512626,2.02421926342711,1.6365124344810593,-0.38625823167191126,-0.7704682163540599,0.507132434432898,0.999999999999978,0.0,0.0,0.0,NAVIGATE,-1,0
27.485351140779432,2.0110367508821305,2.0427467311767,1.6231969565502413,0.7968289795832866,0.4906379778217302,-0.35261587033937886,0.9999999999999679,0.0,0.0,0.0,NAVIGATE,-1,0
27.632205063434363,1.9180901770804908,1.9419541758662753,1.5705864080673406,-0.6329185637079693,-0.686345679354181,-0.35825088994403104,1.0000000000000004,0.0,0.0,0.0,NAVIGATE,-1,0
27.744908330454496,1.9383641695920855,2.0397549237369863,1.5183752469944325,0.17988824146484453,0.8677720749056856,-0.463262179113059,1.0000000000000064,0.0,0.0,0.0,NAVIGATE,-1,0
27.8419940568311,1.9489327678140365,1.9701003240187787,1.5851747959135085,0.10885841427352956,-0.7174545869699804,0.6880470632722476,0.9999999999999885,0.0,0.0,0.0,NAVIGATE,-1,0
27.936765179270175,1.9900805842762046,2.0190757727289608,1.6551021029715796,0.4341809551598503,0.5167760753458139,0.7378545833202069,0.9999999999999892,0.0,0.0,0.0,NAVIGATE,-1,0
27.986374956743177,1.9801761944396574,1.970494039617181,1.6567897909588412,-0.19964592346614063,-0.9792773841450603,0.03401926138814186,1.0000000000000173,0.0,0.0,0.0,NAVIGATE,-1,0
28.13227718587211,2.063390007761443,1.9524028805678162,1.5383177195601803,0.5703395610786077,-0.12399508326482048,-0.8119963081165017,1.0000000000000087,0.0,0.0,0.0,NAVIGATE,-1,0
28.214756676944717,1.986353088709524,1.9816109743108803,1.5421993185194816,-0.9340130261485564,0.3541255330655699,0.047061383488463504,1.000000000000003,0.0,0.0,0.0,NAVIGATE,-1,0
28.309930179414255,2.0764761214086587,1.985194436609395,1.5725801240944737,0.9469340768243705,0.03765189055285231,0.3192149578052545,1.0000000000000184,0.0,0.0,0.0,NAVIGATE,-1,0
28.424898964662862,2.0617119372909736,2.037979059814229,1.6736425998310367,-0.12841906684287607,0.45912134402997695,0.8790427377137807,1.000000000000013,0.0,0.0,0.0,NAVIGATE,-1,0
28.490850783994112,2.1262740703837575,2.0319686174930878,1.6615907109037635,0.9789287656874742,-0.09113383652016106,-0.18273777811558556,0.9999999999999531,0.0,0.0,0.0,NAVIGATE,-1,0
28.603397549521322,2.0278801856311053,2.055317964878767,1.710989353097481,-0.874248889266073,0.20746351328981005,0.4389165869167035,1.0000000000000608,0.0,0.0,0.0,NAVIGATE,-1,0
28.807654019547023,2.1096016389904992,1.926149247072347,1.5754985713135143,0.4000923610846265,-0.6323849510870687,-0.663336548247006,0.999999999999959,0.0,0.0,0.0,NAVIGATE,-1,0
28.919819448250127,2.018143820692398,1.9502171440484208,1.6358084975566503,-0.8153833079904262,0.21457500099946428,0.5376872975965974,1.000000000000031,0.0,0.0,0.0,NAVIGATE,-1,0
28.975823202242648,2.0451469758863876,1.9987067548398532,1.643292327867368,0.4821668775560325,0.8658278657160792,0.133630868954198,1.0000000000000244,0.0,0.0,0.0,NAVIGATE,-1,0
29.057576142851648,2.125735356361743,1.9939734638216662,1.6562017115364607,0.9857551285009465,-0.05789750170363763,0.15790727003734917,1.0000000000000442,0.0,0.0,0.0,NAVIGATE,-1,0
29.112956287790386,2.0985012793553937,2.0294138838058635,1.623502443434703,-0.4917660839724401,0.6399481262355292,-0.5904511109158346,0.9999999999998486,0.0,0.0,0.0,NAVIGATE,-1,0
29.194393431458227,2.0396443596922302,1.982742710663549,1.6549615116672771,-0.7227281927178564,-0.5730944264532762,0.38629876756098697,1.000000000000083,0.0,0.0,0.0,NAVIGATE,-1,0
29.27528987390075,2.1127505849300605,1.949899573564791,1.6439595765263821,0.9037013622666114,-0.405989881719373,-0.13600023448141008,1.000000000000019,0.0,0.0,0.0,NAVIGATE,-1,0
29.307536995403826,2.13848948760487,1.95697019171135,1.6620535560045353,0.7981767511358943,0.21926354406189447,0.5611037089442924,0.9999999999997374,0.0,0.0,0.0,NAVIGATE,-1,0
29.387014252306663,2.0631315127773715,1.9541359246095793,1.6369581993684112,-0.9481703038596972,-0.03566136039692025,-0.31575519354931475,1.0000000000000573,0.0,0.0,0.0,NAVIGATE,-1,0
29.60603839662434,2.2216392076718035,1.8758584263153255,1.7662621811869879,0.7236996422847816,-0.35739209728731625,0.5903640542525419,1.0000000000000226,0.0,0.0,0.0,NAVIGATE,-1,0
29.781631733640303,2.118733289741283,1.9813216518603929,1.670758777494193,-0.5860468266011956,0.600610634419909,-0.5438896789353226,0.9999999999999929,0.0,0.0,0.0,NAVIGATE,-1,0
29.917045899186782,2.176851018988611,1.8606112078962485,1.6510530804559844,0.4291850044844836,-0.8914166658783756,-0.14552168127081885,0.9999999999999758,0.0,0.0,0.0,NAVIGATE,-1,0
30.055926963612457,2.115089810898471,1.98265327748694,1.6751204126986061,-0.4447057512523109,0.8787524065673105,0.1732945548923396,1.000000000000028,0.0,0.0,0.0,NAVIGATE,-1,0
30.14582804441846,2.137492943342579,1.9367746203678489,1.6011241100360611,0.24919758742891465,-0.5103237548177156,-0.8230857960675655,0.9999999999999107,0.0,0.0,0.0,NAVIGATE,-1,0
30.212864185068486,2.163339889665637,1.9051827768499314,1.6543005610474115,0.3855673383406232,-0.47126584573012315,0.7932504839287863,1.000000000000027,0.0,0.0,0.0,NAVIGATE,-1,0
30.31754154676071,2.22039894129064,1.9844962971937956,1.6167375450720742,0.5450944760412426,0.7576950647367636,-0.35884565075093255,0.9999999999999928,0.0,0.0,0.0,NAVIGATE,-1,0
30.389696450050614,2.183867660512441,2.038809758494952,1.6470994210840613,-0.5062896506343341,0.752734170856505,0.42078742576924566,0.9999999999999872,0.0,0.0,0.0,NAVIGATE,-1,0
30.535726841788787,2.130908145512173,1.9527820185419258,1.752547953746754,-0.3626609116766795,-0.5891084652246293,0.7220999095295083,1.0000000000000013,0.0,0.0,0.0,NAVIGATE,-1,0
30.61684275667395,2.159888298553946,1.9098731554330597,1.6901078076543847,0.3572683989670911,-0.5289820520376606,-0.7697644313174089,0.9999999999999484,0.0,0.0,0.0,NAVIGATE,-1,0
30.718209846946397,2.1793314764984344,1.8832044133259447,1.5942640388629483,0.19180956947891473,-0.26309073324919074,-0.9455116895812491,1.000000000000036,0.0,0.0,0.0,NAVIGATE,-1,0
30.81890203187493,2.256573079603456,1.894507886912049,1.53066464939782,0.7671062372898583,0.11225770494628828,-0.631621903033172,1.000000000000029,0.0,0.0,0.0,NAVIGATE,-1,0
30.94518184408216,2.2631044162015805,1.9669182401889223,1.6339151862083017,0.05172114595329116,0.5734119493149481,0.817632961324363,0.9999999999999688,0.0,0.0,0.0,NAVIGATE,-1,0
31.024574706795875,2.2614655184251964,1.9717165415565592,1.713145969165072,-0.020642885523525178,0.060437439885992136,0.9979585097273997,1.0000000000000213,0.0,0.0,0.0,NAVIGATE,-1,0
31.16960755364676,2.313459064106163,1.8550463500597338,1.6444490675661807,0.35849496724299673,-0.8044397805745298,-0.47366443595719837,1.0000000000000029,0.0,0.0,0.0,NAVIGATE,-1,0
31.31097556328237,2.1870184459376176,1.797645927554079,1.6709608710065988,-0.8944075713767131,-0.40603544361705474,0.18753750235824226,1.0000000000000282,0.0,0.0,0.0,NAVIGATE,-1,0
31.457851107947665,2.254913485622929,1.9215861127764815,1.6309418793414758,0.4622623857500087,0.8438449403189691,-0.2724687200739884,0.9999999999999859,0.0,0.0,0.0,NAVIGATE,-1,0
31.608067430305677,2.2604551742277157,1.9143375392646216,1.780880838162114,0.036891387818555166,-0.04825423361506813,0.9981535725744006,0.9999999999999979,0.0,0.0,0.0,NAVIGATE,-1,0
31.65629825407325,2.2610183687576773,1.8794878763667802,1.7475432292327544,0.011677066364772129,-0.7225599767025502,-0.6912096108914959,1.000000000000025,0.0,0.0,0.0,NAVIGATE,-1,0
31.776048974009097,2.3335444990446255,1.959033718165983,1.69507748418696,0.6056425408198098,0.6642619087535904,-0.43812467327044974,0.9999999999999882,0.0,0.0,0.0,NAVIGATE,-1,0
31.894435381966854,2.257021626207664,1.8693385205259427,1.6843834184384538,-0.6463822507754978,-0.7576477670649925,-0.0903318711411704,1.0000000000000162,0.0,0.0,0.0,NAVIGATE,-1,0
32.072346468319665,2.410541874889335,1.7924150152329243,1.6378359993328886,0.8629043407515873,-0.4323704996127858,-0.2616330441221534,0.999999999999983,0.0,0.0,0.0,NAVIGATE,-1,0
32.20111143957599,2.3243514943871326,1.8787372728247613,1.596603682204507,-0.6693620140731369,0.670386183055958,-0.32021377185184247,0.9999999999999832,0.0,0.0,0.0,NAVIGATE,-1,0
32.35134955555484,2.3507800712297477,1.7907114311355783,1.7154501083765152,0.17591126373240346,-0.585908849533059,0.7910537575480373,0.9999999999999765,0.0,0.0,0.0,NAVIGATE,-1,0
32.44496794471329,2.30507816863531,1.8680255153292418,1.6890252853275842,-0.4881722811646167,0.8258429234753036,-0.282261031048148,1.0000000000000326,0.0,0.0,0.0,NAVIGATE,-1,0
32.56066088523568,2.3366689920536206,1.8361978749810632,1.7956736686830612,0.27305748540636043,-0.27510442905563415,0.9218227393471841,1.0000000000000087,0.0,0.0,0.0,NAVIGATE,-1,0
32.69500818436078,2.3360156737766418,1.8328721009383881,1.6613691297260509,-0.004862905925413665,-0.024755049519664327,-0.9996817191832551,0.9999999999999745,0.0,0.0,0.0,NAVIGATE,-1,0
32.74499379613817,2.31792907843004,1.8570365446709536,1.6215254839011024,-0.36183603047914853,0.48342798804149106,-0.7971022942040507,1.0000000000000562,0.0,0.0,0.0,NAVIGATE,-1,0
32.858310175392425,2.3146411526900326,1.743847038102906,1.6257595073427582,-0.029015450031545605,-0.9988803676304786,0.03736461992096979,0.9999999999999859,0.0,0.0,0.0,NAVIGATE,-1,0
33.05627577318171,2.3410562772093595,1.8649243045559882,1.7801386336939202,0.13343290356662516,0.6116076116515822,0.7798280513136617,1.000000000000018,0.0,0.0,0.0,NAVIGATE,-1,0
33.09225549588245,2.341035874218637,1.89394304948736,1.7588677034851088,-0.0005670691487092174,0.8065305331209994,-0.5911921663691789,1.000000000000073,0.0,0.0,0.0,NAVIGATE,-1,0
33.2108602243725,2.2748967319447866,1.8072785810975518,1.7121561910048793,-0.5576433850139102,-0.7306999433591276,-0.393841907273926,0.999999999999984,0.0,0.0,0.0,NAVIGATE,-1,0
33.35086910527208,2.4016589266196235,1.7510881247449772,1.731558905940171,0.905386814467554,-0.4013349438374345,0.13858203001571254,0.9999999999999888,0.0,0.0,0.0,NAVIGATE,-1,0
33.416697798672,2.360521110758615,1.7755904026066687,1.7767334049469599,-0.6249222601319564,0.3722127327188159,0.6862432880499362,1.0000000000000144,0.0,0.0,0.0,NAVIGATE,-1,0
33.54328960256423,2.437218645486151,1.7681892420162373,1.6762933939885616,0.6058649325577865,-0.05846476914676092,-0.7934163813946674,1.0000000000000218,0.0,0.0,0.0,NAVIGATE,-1,0
33.630913892824886,2.399886379252871,1.796747662578994,1.7502442882125817,-0.42604928521791813,0.32591899435423505,0.8439542734558888,1.000000000000016,0.0,0.0,0.0,NAVIGATE,-1,0
33.72387383305229,2.454334649174482,1.7630409970373566,1.6828588514499534,0.5857175659581715,-0.3625934511057433,-0.7248868340253606,1.0000000000000242,0.0,0.0,0.0,NAVIGATE,-1,0
33.89946574438433,2.436395673853666,1.8879685101950925,1.56077761232656,-0.1021628797404784,0.7114650795132574,-0.6952554829962505,1.0000000000000113,0.0,0.0,0.0,NAVIGATE,-1,0
34.0988902334629,2.466938237688986,1.7541646320409026,1.7054627906604618,0.1531535268132814,-0.6709500862828883,0.7255135966621208,0.9999999999999841,0.0,0.0,0.0,NAVIGATE,-1,0
34.15869776246024,2.4908808926315142,1.7107354950498488,1.738893313529287,0.4003284426546567,-0.7261483247867629,0.5589684681725,1.000000000000018,0.0,0.0,0.0,NAVIGATE,-1,0
34.220499211279666,2.437033255769582,1.740291816867678,1.7456958807775027,-0.8713005583294459,0.4782464227366142,0.11007132321593321,1.0000000000000393,0.0,0.0,0.0,NAVIGATE,-1,0
34.361796791682565,2.406539172018491,1.8190556245512226,1.6324202007615112,-0.21581462091664633,0.5574321050576795,-0.8016816685253555,1.0000000000000147,0.0,0.0,0.0,NAVIGATE,-1,0
34.48109557025397,2.454338903958097,1.7521260729008745,1.71883674611606,0.4006724336326383,-0.5610246177859062,0.7243707470384957,1.0000000000000155,0.0,0.0,0.0,NAVIGATE,-1,0
34.51746802799358,2.4812326960620408,1.7705611617674626,1.702717592082092,0.7393999134310929,0.5068419901279351,-0.4431692284685551,1.000000000000084,0.0,0.0,0.0,NAVIGATE,-1,0
34.64400105284785,2.5720290617782333,1.694052655205965,1.7464563023423654,0.7175704984589231,-0.6046524743213462,0.34567031263694575,1.0000000000000187,0.0,0.0,0.0,NAVIGATE,-1,0
34.853822308299506,2.3654611291972376,1.728855767386763,1.7344816686922386,-0.984494788844633,0.1658702885266867,-0.05707064150555356,1.0000000000000102,0.0,0.0,0.0,NAVIGATE,-1,0
34.95672140903337,2.4205813843553243,1.7819764590855602,1.6657199459346799,0.5356728558847973,0.5162405824729902,-0.6682441563352643,1.000000000000028,0.0,0.0,0.0,NAVIGATE,-1,0
35.06429817327468,2.4974434037751747,1.7753336210919466,1.740692360052965,0.7144853255433404,-0.0617497471732178,0.6969201448568613,1.0000000000000189,0.0,0.0,0.0,NAVIGATE,-1,0
35.22569451282109,2.5143191510888063,1.6368922531165357,1.6594644387162392,0.10456090491927501,-0.8577726630262157,-0.5032823022195395,1.0000000000000115,0.0,0.0,0.0,NAVIGATE,-1,0
35.28832947804389,2.567577972083064,1.6349468362103752,1.692371158513625,0.8503049503549766,-0.031059599047281845,0.5253730034068574,0.9999999999999495,0.0,0.0,0.0,NAVIGATE,-1,0
35.439476041169804,2.57337770508802,1.756671611894665,1.781784388107776,0.038371583746333184,0.8053426632194535,0.5915664090864257,1.000000000000006,0.0,0.0,0.0,NAVIGATE,-1,0
35.60881886709119,2.542401284372536,1.6294599207007427,1.6743849482848456,-0.18292136408462215,-0.7512080331822257,-0.634213107278546,0.9999999999999977,0.0,0.0,0.0,NAVIGATE,-1,0
35.67753277103825,2.5147686305754244,1.6923673565313346,1.675216547343997,-0.4021406470864981,0.9154979155172872,0.012102340449060727,0.9999999999999951,0.0,0.0,0.0,NAVIGATE,-1,0
35.77625048953477,2.5644240068556714,1.657866609571751,1.7532500658527446,0.5030036860302775,-0.34948890113177866,0.7904712517388794,0.9999999999999875,0.0,0.0,0.0,NAVIGATE,-1,0
35.83867744116681,2.5438944208569905,1.6169251038618595,1.795670031658942,-0.32885773631374926,-0.6558306090486391,0.6795136507102026,1.0000000000000098,0.0,0.0,0.0,NAVIGATE,-1,0
35.96770650659613,2.623012553783079,1.6728364917087337,1.710448335613332,0.6131807020599342,0.4333239775149799,-0.6604844866701142,1.0000000000000004,0.0,0.0,0.0,NAVIGATE,-1,0
36.056034959513916,2.557611216256414,1.6168834984031528,1.7302938183416103,-0.7404334092383471,-0.6334651118327727,0.2246782556777047,1.0000000000000024,0.0,0.0,0.0,NAVIGATE,-1,0
36.10453659393621,2.557960704225205,1.5761815551685996,1.7566687726870678,0.007205694673043751,-0.8391870442997743,0.5437951660724651,1.0000000000000462,0.0,0.0,0.0,NAVIGATE,-1,0
36.158083316187934,2.537922084673551,1.613498046849498,1.789428269615394,-0.3742268192897425,0.6968959090618632,0.61179275874858,1.0000000000000382,0.0,0.0,0.0,NAVIGATE,-1,0
36.22122295504054,2.5987965692138673,1.599110621615043,1.7808309955409676,0.9641246869090324,-0.2278667647757934,-0.1361628642586361,0.9999999999999711,0.0,0.0,0.0,NAVIGATE,-1,0
36.34812763397322,2.553617247888356,1.6843949833455591,1.6984283007804684,-0.35600989424099144,0.6720348094947391,-0.6493274751848237,1.0000000000000049,0.0,0.0,0.0,NAVIGATE,-1,0
36.513927199525284,2.6392768772578195,1.543503070293473,1.6810676363328276,0.5166456804892224,-0.8497725104583823,-0.10470874510337126,1.000000000000018,0.0,0.0,0.0,NAVIGATE,-1,0
36.65083015051419,2.5993336942266208,1.662246304689574,1.7362673139039808,-0.2917627614501599,0.8673533589916893,0.4032029782588608,1.0000000000000022,0.0,0.0,0.0,NAVIGATE,-1,0
36.774980250974345,2.6283316959990453,1.624915865298749,1.621468352095256,0.2335721168564899,-0.300687951539802,-0.924678766937992,0.9999999999999947,0.0,0.0,0.0,NAVIGATE,-1,0
36.902188480195086,2.595462168881195,1.6085629103098438,1.7432637076374824,-0.25839151538547356,-0.12855265016328707,0.9574487145079095,1.000000000000027,0.0,0.0,0.0,NAVIGATE,-1,0
36.96189863978848,2.583085479660916,1.6551485960457775,1.7080231825686683,-0.2072794530203972,0.780196972394092,-0.5901931146858503,0.9999999999999639,0.0,0.0,0.0,NAVIGATE,-1,0
37.05692387863637,2.611344219323558,1.5647766893818438,1.7160330600148073,0.297381411562427,-0.9510305657699653,0.08429210537382383,0.9999999999999768,0.0,0.0,0.0,NAVIGATE,-1,0
37.10445044602445,2.6421538917804184,1.5286773464823005,1.7185581606100349,0.648262101600589,-0.7595613334489465,0.05313029604281418,0.9999999999999756,0.0,0.0,0.0,NAVIGATE,-1,0
37.28531453880902,2.7101008025035402,1.5580681319233298,1.8835770053312573,0.3756793826625139,0.1625020477449751,0.9123914104817996,0.9999999999999827,0.0,0.0,0.0,NAVIGATE,-1,0
