time,x,y,z,velocity_x,velocity_y,velocity_z,speed,roll,pitch,yaw,state,target_waypoint,obstacle_avoiding
0.0,-0.00412795247734526,0.046574770041527117,0.9693251057513881,0.0,0.0,0.0,0.0,0.0,0.0,0.0,NAVIGATE,-1,0
0.07402633522096402,0.06451576861669957,0.06658760927483502,0.9884934162254829,0.9272878481576533,0.2703475617639428,0.25893907103301306,0.9999999999999999,0.0,0.0,0.0,NAVIGATE,-1,0
0.2812735018394946,0.0639511815226607,-0.019745368894370646,0.8000851197169223,-0.0027242210508868973,-0.4165701253137729,-0.9090995046284722,1.0,0.0,0.0,0.0,NAVIGATE,-1,0
0.48992877976941834,-0.013932913651041746,-0.05737304937761953,0.9899673210640678,-0.37326683487900847,-0.180334189753331,0.9100282687836773,1.0,0.0,0.0,0.0,NAVIGATE,-1,0
0.7049489603348521,0.04508647218532018,0.14917830493520662,0.9806437928999158,0.2744830075072952,0.9606138073629307,-0.0433611772608235,1.0,0.0,0.0,0.0,NAVIGATE,-1,0
0.7732244386830696,0.014094834183375517,0.08836666524966508,0.9789106465153892,-0.4539204814337825,-0.8906805365081594,-0.025384609913492392,0.9999999999999998,0.0,0.0,0.0,NAVIGATE,-1,0
0.9429704170680869,0.1599006522534633,0.15751627858158804,1.031567000081173,0.8589647864255814,0.40737114357477144,0.3102067811370989,1.0000000000000007,0.0,0.0,0.0,NAVIGATE,-1,0
1.0581157809079373,0.050937404667878355,0.16254269623490966,0.9946861023834702,-0.9463103328861435,0.04365280099607486,-0.3202985901282004,0.9999999999999998,0.0,0.0,0.0,NAVIGATE,-1,0
1.1412219445669207,-0.019470566533002914,0.16521990305579917,0.9506158789539505,-0.8472051662713287,0.032214299192959046,-0.5302882661069139,1.0000000000000002,0.0,0.0,0.0,NAVIGATE,-1,0
1.2573423068531762,0.09316593994558765,0.15953267925366904,0.9782674870665745,0.9699978906449103,-0.04897697260115506,0.2381288481038178,1.0000000000000002,0.0,0.0,0.0,NAVIGATE,-1,0
1.3021204360705407,0.08387985928073932,0.17303649144502298,1.019938779563851,-0.20737982642756925,0.30157160264116784,0.9306170942290451,1.0000000000000013,0.0,0.0,0.0,NAVIGATE,-1,0
1.3780797378300134,0.14471632593185485,0.182748373213579,1.0643732166786375,0.8009087135076096,0.12785638550639908,0.5849769032302247,0.9999999999999993,0.0,0.0,0.0,NAVIGATE,-1,0
1.4691204869281913,0.13128761516506948,0.26293900267612347,1.1053311300764208,-0.14750219983695328,0.8808212834020867,0.4498855051556582,1.0000000000000007,0.0,0.0,0.0,NAVIGATE,-1,0
1.5885678295617973,0.18240436376297742,0.26689687371521,0.9974465578158501,0.4279437907187602,0.033134860532033156,-0.9031977596311783,0.9999999999999996,0.0,0.0,0.0,NAVIGATE,-1,0
1.8212624085291,0.053241055615383,0.09997473377239019,0.8994638751313597,-0.5550765674078892,-0.7173443433174049,-0.4210784931876669,1.0,0.0,0.0,0.0,NAVIGATE,-1,0
2.151593024081385,0.16399326819861026,0.3603774052650819,1.0698830983972238,0.33527686314530336,0.7883092248574065,0.5159050213403246,1.0000000000000002,0.0,0.0,0.0,NAVIGATE,-1,0
2.2972171787623994,0.055170939761076426,0.3082026848993164,0.9883852836121161,-0.7472821296433003,-0.3582834213187553,-0.5596448952004316,1.0000000000000004,0.0,0.0,0.0,NAVIGATE,-1,0
2.3445786884594075,0.03997563085608499,0.2641217748517013,0.9800733309272311,-0.32083666678284395,-0.9307327897615504,-0.17550016327731227,1.0000000000000036,0.0,0.0,0.0,NAVIGATE,-1,0
2.492515294450466,0.1409998103947475,0.36863483015143317,1.0075756183340792,0.6828883146391008,0.7064719012551156,0.1859058968035966,0.9999999999999994,0.0,0.0,0.0,NAVIGATE,-1,0
2.6069435327502255,0.13299993512483532,0.38864713909031173,1.1199559155706826,-0.06991172274238332,0.17488960099563636,0.9821028349856147,1.000000000000001,0.0,0.0,0.0,NAVIGATE,-1,0
2.6560259954474352,0.12137837217767722,0.39822556223013533,1.0732410225573972,-0.2367762803356396,0.1951496036153076,-0.9517634292612857,0.9999999999999977,0.0,0.0,0.0,NAVIGATE,-1,0
2.7856693072292544,0.13997305642473862,0.48727037614071456,0.9808686937833516,0.14342956834020854,0.6868446407820523,-0.7125113320886298,0.9999999999999993,0.0,0.0,0.0,NAVIGATE,-1,0
2.865668725581997,0.1258468855891417,0.43692174154827895,1.041411019713052,-0.17657841927437756,-0.6293625082426554,0.7567845763921703,1.0000000000000004,0.0,0.0,0.0,NAVIGATE,-1,0
2.9507408793766396,0.09220947229142394,0.4869930657910445,1.101399837558328,-0.395398632776076,0.5885747804579362,0.7051522169061843,1.0000000000000022,0.0,0.0,0.0,NAVIGATE,-1,0
3.157404835655823,0.22890416152576612,0.4665548517498014,0.9477546874009115,0.6614345902179515,-0.09889588106807101,-0.7434540251898432,0.9999999999999997,0.0,0.0,0.0,NAVIGATE,-1,0
3.2865125097901604,0.18167755505684438,0.46989961245863304,1.0678681826360785,-0.36579240378679645,0.025906753655490784,0.9303358304649496,0.9999999999999982,0.0,0.0,0.0,NAVIGATE,-1,0
3.363259288585209,0.19019248707416825,0.5460712047530831,1.0639372138643186,0.11094839615435738,0.9925053987981127,-0.05121998386743409,1.0000000000000024,0.0,0.0,0.0,NAVIGATE,-1,0
3.402424116552293,0.21312972979770234,0.5262971872208151,1.0887717639219807,0.5856592231890188,-0.5048922351679157,0.6341033868075234,0.9999999999999952,0.0,0.0,0.0,NAVIGATE,-1,0
3.4562813447654905,0.24485362872161595,0.5623575875549129,1.0644028740084386,0.5890369775127009,0.6695554437252194,-0.4524720399103391,0.9999999999999986,0.0,0.0,0.0,NAVIGATE,-1,0
3.51497124366313,0.2444397352596962,0.595078762862939,1.015682676848752,-0.00705220948909143,0.5575265236884239,-0.830129171710774,0.9999999999999962,0.0,0.0,0.0,NAVIGATE,-1,0
3.6332303559632875,0.2500406370922037,0.5181147220548084,1.1052950864981324,0.04736127071791025,-0.6508085449921673,0.7577632531346277,1.0000000000000053,0.0,0.0,0.0,NAVIGATE,-1,0
3.7514863638252454,0.26910496172215603,0.6324651131017702,1.0819493590676588,0.16121231364588615,0.966973205965526,-0.1974168404004084,0.9999999999999938,0.0,0.0,0.0,NAVIGATE,-1,0
3.836192425567524,0.19134594919779277,0.6278576735083053,1.1152273452975254,-0.9179863981983725,-0.0543932688959521,0.39286428320934347,0.9999999999999998,0.0,0.0,0.0,NAVIGATE,-1,0
4.001464885234134,0.3326834557732205,0.6453970445592782,1.0313758955639125,0.8551788172121081,0.10612397907281973,-0.5073528275839729,1.0000000000000004,0.0,0.0,0.0,NAVIGATE,-1,0
4.135227691688277,0.28877251529563286,0.589332080387279,1.1446059158290995,-0.3282746649954709,-0.41913717017607366,0.8464985392184136,1.0000000000000018,0.0,0.0,0.0,NAVIGATE,-1,0
4.288176236726952,0.32629716850970963,0.7338734963190389,1.111546319475652,0.24534168144318208,0.9450329579481175,-0.21614848539479686,1.0000000000000004,0.0,0.0,0.0,NAVIGATE,-1,0
4.441506851911395,0.2974817994975399,0.5851049520907868,1.134952991809387,-0.18792965108440587,-0.9702468358931219,0.15265491699474865,0.9999999999999973,0.0,0.0,0.0,NAVIGATE,-1,0
4.592418932227615,0.22945048623646686,0.7148926860694318,1.0988788943150405,-0.45080097708891576,0.860022164605302,-0.2390404891295454,1.0000000000000013,0.0,0.0,0.0,NAVIGATE,-1,0
4.666331225636103,0.2564189626653491,0.7502001636690913,1.1579475867125937,0.36487132498834496,0.4776942504615198,0.7991727718567863,1.0000000000000013,0.0,0.0,0.0,NAVIGATE,-1,0
4.7114564130884755,0.285251144861316,0.7183361775739084,1.1441753609463527,0.6389376714810986,-0.7061241823940085,-0.30520041120664376,0.9999999999999998,0.0,0.0,0.0,NAVIGATE,-1,0
4.762971480819712,0.3189668316050228,0.73398756544183,1.1085090080551188,0.6544820424115041,0.30382155274603495,-0.692347976271945,1.0000000000000016,0.0,0.0,0.0,NAVIGATE,-1,0
4.849739263443008,0.35498689121528765,0.7185122622176898,1.1859151990036303,0.41513172886584665,-0.17835310245654745,0.8921075151196616,0.9999999999999998,0.0,0.0,0.0,NAVIGATE,-1,0
4.927123748263009,0.4081484858559277,0.7704185960101041,1.164283373876018,0.6869800162693612,0.6707589242617632,-0.2795369792527367,0.9999999999999972,0.0,0.0,0.0,NAVIGATE,-1,0
5.085603411208119,0.3182847508556549,0.8212885789102832,1.0440645835862639,-0.5670363839137982,0.3209874500919277,-0.7585755046146982,0.9999999999999991,0.0,0.0,0.0,NAVIGATE,-1,0
5.228116842486361,0.4408233488210838,0.8462107965177584,1.1124257799837134,0.859838941960396,0.1748762722498583,0.4796824817443478,0.9999999999999981,0.0,0.0,0.0,NAVIGATE,-1,0
5.367693791391714,0.30439834159714346,0.8576708331465198,1.085248406487679,-0.9774178923802791,0.08210551039149305,-0.19471247730499697,1.0000000000000016,0.0,0.0,0.0,NAVIGATE,-1,0
5.418920233649669,0.33701890133239554,0.8259328548477373,1.1087590041507014,0.636791436168616,-0.6195624154213777,0.4589543334794283,1.0000000000000033,0.0,0.0,0.0,NAVIGATE,-1,0
5.479607299764783,0.3967181688017402,0.8344584567476603,1.1019596240666119,0.9837230779307141,0.14048466082956243,-0.11204001971675746,1.000000000000003,0.0,0.0,0.0,NAVIGATE,-1,0
5.602689567258709,0.45481379351139073,0.9416037137346659,1.1191071272734994,0.4720064546464223,0.8705174122039415,0.13931741392182068,0.999999999999998,0.0,0.0,0.0,NAVIGATE,-1,0
5.673742722525042,0.43760724979078897,0.8728811960482198,1.1136572383453844,-0.24216438603050572,-0.9671986758202226,-0.07670157514732118,1.000000000000002,0.0,0.0,0.0,NAVIGATE,-1,0
5.78797877547337,0.4079093870322682,0.9250859649186853,1.2108301504555528,-0.259969265324267,0.45699030667734447,0.8506326120539426,1.0000000000000027,0.0,0.0,0.0,NAVIGATE,-1,0
5.914289144700759,0.40309181266612165,0.9364085392508081,1.0851205658484928,-0.03814076702977368,0.08964089331208769,-0.9952435843232494,0.9999999999999988,0.0,0.0,0.0,NAVIGATE,-1,0
5.992414028632053,0.4011839598128573,1.0074210012874039,1.1176334528668677,-0.024420552802896556,0.9089608644928877,0.41616557212382954,1.0000000000000056,0.0,0.0,0.0,NAVIGATE,-1,0
6.134202050313885,0.369375229070644,0.8692582454797793,1.119394318750339,-0.22434004202125932,-0.9744317902795635,0.012419003118773234,0.9999999999999998,0.0,0.0,0.0,NAVIGATE,-1,0
6.278205037000653,0.4299905280044334,0.9997359085630454,1.1132116699485257,0.4209308454527979,0.9060760897069304,-0.04293417063120809,0.9999999999999991,0.0,0.0,0.0,NAVIGATE,-1,0
6.344731300804164,0.4333365833526275,0.9823385605032234,1.1773356121990348,0.05029675735401063,-0.26151097424027836,0.9638891256527287,1.0000000000000047,0.0,0.0,0.0,NAVIGATE,-1,0
6.444703173366639,0.3957063380241585,1.005622296783738,1.087690715160852,-0.37640832730179147,0.23290287241507918,-0.8967011894486794,1.0000000000000018,0.0,0.0,0.0,NAVIGATE,-1,0
6.588889167495735,0.4856874826995029,1.0312330639305183,1.1974043565736852,0.6240630043080366,0.17762312699976843,0.7609174668837949,0.9999999999999998,0.0,0.0,0.0,NAVIGATE,-1,0
6.687761930816348,0.4024157472339273,1.0779834231310523,1.223017738111979,-0.8422110667176538,0.47283354515881654,0.25905396671515757,1.0000000000000004,0.0,0.0,0.0,NAVIGATE,-1,0
6.789419728103156,0.42099667052719025,1.0472793462037848,1.1279056111311347,0.18277912554843523,-0.30203366339565374,-0.9356107403399965,1.0000000000000029,0.0,0.0,0.0,NAVIGATE,-1,0
6.913456958701194,0.4046413063673694,1.1593201973394152,1.178547336165281,-0.13185850797348886,0.903284042987998,0.4082784240665502,1.000000000000002,0.0,0.0,0.0,NAVIGATE,-1,0
7.00706832058915,0.43898606345577124,1.0722370410404067,1.1787678448025234,0.366886629953202,-0.9302626790457191,0.0023555755711188284,1.0000000000000038,0.0,0.0,0.0,NAVIGATE,-1,0
7.079226643224039,0.4779136442459749,1.1148594536203376,1.135468919582966,0.539474579906354,0.59067909318783,-0.6000544862807337,0.9999999999999847,0.0,0.0,0.0,NAVIGATE,-1,0
7.118966707072409,0.486313423778501,1.0940735455351704,1.1682814538275592,0.2113680432063676,-0.5230466705961155,0.8256789513421715,1.000000000000039,0.0,0.0,0.0,NAVIGATE,-1,0
7.234255182452741,0.5817578814341089,1.0514230004376441,1.2168892624721819,0.8278750962812237,-0.36994630171683573,0.4216189734860094,1.0000000000000029,0.0,0.0,0.0,NAVIGATE,-1,0
7.3793071212808465,0.5223635334424129,1.1833331055332952,1.2063015073707593,-0.4094695215489778,0.9093991170429768,-0.07299285474542808,0.9999999999999909,0.0,0.0,0.0,NAVIGATE,-1,0
7.45883023042144,0.5805735681171891,1.1691220194926417,1.1540180321219444,0.7319889187413848,-0.17870385343622408,-0.657462664800742,1.0000000000000149,0.0,0.0,0.0,NAVIGATE,-1,0
7.618629169604464,0.481160289780724,1.1041882809376624,1.260958719662702,-0.6221147577369276,-0.4063464932054905,0.6692202594553773,0.9999999999999992,0.0,0.0,0.0,NAVIGATE,-1,0
7.737855798403785,0.5043016356479884,1.0184357870587717,1.1814227094544112,0.19409544747101204,-0.7192394412428399,-0.6670993804761847,0.9999999999999971,0.0,0.0,0.0,NAVIGATE,-1,0
7.859675406372753,0.5333058969951925,1.117485211086919,1.2461373237938989,0.23809189530959907,0.8130827678691767,0.5312331521865712,0.9999999999999996,0.0,0.0,0.0,NAVIGATE,-1,0
7.920595449261067,0.5668212619794535,1.163178050903258,1.223773595906888,0.5501533386262648,0.7500460874610531,-0.3670996740434149,1.0000000000000202,0.0,0.0,0.0,NAVIGATE,-1,0
8.060587451410184,0.5868633952305715,1.2192835468000978,1.097091920473414,0.14316627338302898,0.40077643747874375,-0.9049208061081604,0.9999999999999901,0.0,0.0,0.0,NAVIGATE,-1,0
8.227165026392882,0.505869167404408,1.220897643040132,1.2426440356737367,-0.486225278730202,0.009689757100869188,0.873779770268842,1.0000000000000033,0.0,0.0,0.0,NAVIGATE,-1,0
8.347955569912552,0.5915930104668112,1.2254102641180613,1.1576651301418543,0.7096900184776787,0.037359059297506506,-0.7035228342858173,0.999999999999996,0.0,0.0,0.0,NAVIGATE,-1,0
8.543535567777027,0.599376720846756,1.2290263821491352,1.3530567192847218,0.03979809011624155,0.018489201710594146,0.9990366667160976,1.0000000000000033,0.0,0.0,0.0,NAVIGATE,-1,0
8.721697042132742,0.6069202081358627,1.3320608298974153,1.2079067646814627,0.04234073228449753,0.5783205831725595,-0.8147101113086577,1.000000000000001,0.0,0.0,0.0,NAVIGATE,-1,0
8.807003705931493,0.6719720234248376,1.283837263009434,1.1810743996593045,0.7625642873860453,-0.5652965986543224,-0.3145400819502137,0.9999999999999901,0.0,0.0,0.0,NAVIGATE,-1,0
8.82391257322317,0.6582422761338875,1.2840802965850024,1.1712080544851617,-0.8119850403999473,0.014373143474143962,-0.5835012484247799,0.9999999999999546,0.0,0.0,0.0,NAVIGATE,-1,0
8.861174018501918,0.6217039560648979,1.278604305501054,1.1760433406654993,-0.9805932055413076,-0.14696131733439688,0.12976646891083848,1.0000000000000129,0.0,0.0,0.0,NAVIGATE,-1,0
8.979112481670844,0.6816389614539735,1.3111148767427194,1.2722739957666687,0.5081887942123623,0.2756570703749099,0.8159395375818655,1.0000000000000007,0.0,0.0,0.0,NAVIGATE,-1,0
9.10126666500551,0.6401849350760878,1.4060806026599897,1.20758459088282,-0.339358221276094,0.7774250813588053,-0.529571752009668,1.0000000000000042,0.0,0.0,0.0,NAVIGATE,-1,0
9.258123524819588,0.7629387214982066,1.308627394622531,1.201383410916524,0.7825847499919217,-0.6212875111293764,-0.03953400554904767,1.0000000000000029,0.0,0.0,0.0,NAVIGATE,-1,0
9.303211490728954,0.7303907399181973,1.3205691461956874,1.17255723992077,-0.7218773551558388,0.26485452009880683,-0.6393318131427697,0.9999999999999898,0.0,0.0,0.0,NAVIGATE,-1,0
9.390931756983983,0.6558295881394585,1.3659152449209007,1.1814573010264324,-0.8499877504015635,0.5169398208776325,0.10145957696693764,1.0000000000000095,0.0,0.0,0.0,NAVIGATE,-1,0
9.48145172898279,0.7063350191207054,1.43738803635043,1.204581030339287,0.557947929788494,0.7895803528360706,0.25545444615426144,0.9999999999999902,0.0,0.0,0.0,NAVIGATE,-1,0
9.539629501959622,0.6511616470674461,1.4558377863821026,1.2041822715334891,-0.9483582686334746,0.31712712755470757,-0.006854143522418289,1.0000000000000036,0.0,0.0,0.0,NAVIGATE,-1,0
9.605829340606027,0.6718503823148834,1.3952700137649339,1.1872725172222516,0.3125194210508978,-0.914923266515514,-0.25543497774304397,0.999999999999998,0.0,0.0,0.0,NAVIGATE,-1,0
9.658590745081574,0.706645632309513,1.4236526281048918,1.2149760112847825,0.6594830130186591,0.5379427371595541,0.5250712019118191,1.000000000000002,0.0,0.0,0.0,NAVIGATE,-1,0
9.77030546762569,0.7978077188322708,1.3827046708517787,1.1650468814032844,0.8160257166351351,-0.3665403835823224,-0.44693419761017694,1.0000000000000073,0.0,0.0,0.0,NAVIGATE,-1,0
9.916390978618036,0.801075242358433,1.451271209772422,1.2940000882356275,0.022367197841635423,0.46935892858146355,0.8827241384609258,1.0000000000000049,0.0,0.0,0.0,NAVIGATE,-1,0
10.081417294992988,0.6428634231292243,1.4116785149186006,1.2687984242690966,-0.9587066033137381,-0.23991746118760768,-0.1527130006905737,0.9999999999999958,0.0,0.0,0.0,NAVIGATE,-1,0
10.2457775311416,0.7947438762250753,1.4744346734234957,1.2659209663745252,0.9240705456186066,0.38182081004162005,-0.017507019714729753,1.0,0.0,0.0,0.0,NAVIGATE,-1,0
10.306504588110142,0.7577996849567165,1.5160719176865818,1.2416466575323857,-0.6083645925323997,0.6856456798928238,-0.39972806280920625,1.000000000000003,0.0,0.0,0.0,NAVIGATE,-1,0
10.374284050618195,0.791772107342512,1.4681828733943538,1.275507689588402,0.501220002766461,-0.706542107596946,0.49957657973450786,0.9999999999999873,0.0,0.0,0.0,NAVIGATE,-1,0
10.434354206569173,0.7635684944144882,1.5115563990112884,1.3060317314134626,-0.4695112320174474,0.7220478277487872,0.5081398798093777,0.9999999999999861,0.0,0.0,0.0,NAVIGATE,-1,0
10.527958702946234,0.7399091225371123,1.5405096014519328,1.2202194483019968,-0.2527589249780297,0.3093142270005286,-0.9167538572697776,0.9999999999999998,0.0,0.0,0.0,NAVIGATE,-1,0
10.64738568188904,0.729144649170583,1.5992552197679284,1.3236403443589242,-0.09013435206867747,0.491895707620048,0.8659759877745632,0.9999999999999992,0.0,0.0,0.0,NAVIGATE,-1,0
10.742698397842247,0.7963811219146277,1.534081844366639,1.3414224053789152,0.7054302468629001,-0.6837846844411106,0.18656546340281455,0.9999999999999941,0.0,0.0,0.0,NAVIGATE,-1,0
10.856040045770756,0.8059780922364839,1.4251046571649555,1.3117879662008092,0.08467293794695371,-0.9614928774497922,-0.2614611638327167,1.0000000000000042,0.0,0.0,0.0,NAVIGATE,-1,0
10.980786472355229,0.763580663423665,1.515946797930119,1.2375462364468541,-0.3398688842129614,0.7282143725668119,-0.5951411337917715,0.999999999999997,0.0,0.0,0.0,NAVIGATE,-1,0
11.116721574356294,0.7744850485754965,1.6148408054959722,1.3301714036967192,0.08021758170855676,0.7275089811980874,0.6813925607613782,0.9999999999999982,0.0,0.0,0.0,NAVIGATE,-1,0
11.297287259059365,0.7935595186349149,1.4357678715978588,1.3433249366579847,0.10563729254971799,-0.9917329208624989,0.07284624973397197,1.000000000000001,0.0,0.0,0.0,NAVIGATE,-1,0
11.399010602737247,0.8225791181065677,1.5329081164916958,1.335001817201978,0.28527964597336064,0.9549454567816975,-0.08182113519943614,1.0000000000000075,0.0,0.0,0.0,NAVIGATE,-1,0
11.485560765279867,0.8166359325796555,1.6085399522648425,1.2933432694652853,-0.06866752588691648,0.8738497254225616,-0.48132258233690317,0.9999999999999907,0.0,0.0,0.0,NAVIGATE,-1,0
11.571465064385384,0.8777988456606582,1.5787250020719454,1.240905540555168,0.7119889658359952,-0.3470716891162249,-0.6104203102304318,1.000000000000008,0.0,0.0,0.0,NAVIGATE,-1,0
11.628258646370416,0.846122133060208,1.5410799122222492,1.2692770763565162,-0.5577516242733007,-0.6628405628582812,0.49955531610641585,0.9999999999999847,0.0,0.0,0.0,NAVIGATE,-1,0
11.679808853295926,0.8569011147363665,1.5649851413804083,1.3136592507848142,0.20909676835505436,0.4637271232044149,0.8609504612159932,1.0000000000000007,0.0,0.0,0.0,NAVIGATE,-1,0
11.808158176767769,0.890049052176521,1.6880043284847301,1.3291848001578765,0.25826343718458566,0.9584716442335542,0.12096323496764151,1.000000000000003,0.0,0.0,0.0,NAVIGATE,-1,0
11.873828807764545,0.9126590658038101,1.6350094146641017,1.2976735613940222,0.3442941431215916,-0.806980426657245,-0.4798376121192058,1.0000000000000007,0.0,0.0,0.0,NAVIGATE,-1,0
11.952278410210962,0.8656627919994824,1.5833173547989603,1.2619857298626984,-0.5990632500200009,-0.658920609577954,-0.4549141157942693,0.9999999999999952,0.0,0.0,0.0,NAVIGATE,-1,0
12.025928407705898,0.8626813321100678,1.5632725584220801,1.332792785769163,-0.0404814662705122,-0.27216289285357254,0.9613992982326048,0.9999999999999905,0.0,0.0,0.0,NAVIGATE,-1,0
12.078175004483946,0.8516338794305517,1.6099810540465709,1.3534319984643883,-0.211448273395635,0.8940007293281954,0.3950345853702995,1.0000000000000124,0.0,0.0,0.0,NAVIGATE,-1,0
12.123021109805283,0.8246405259891444,1.63776171482842,1.3308318453896064,-0.6019107623279883,0.6194665196184049,-0.5039490701108682,1.0000000000000042,0.0,0.0,0.0,NAVIGATE,-1,0
12.252771720348104,0.9443137891076285,1.607751043639946,1.2906710355667679,0.9223329479362158,-0.2312950286932921,-0.3095230893698522,0.9999999999999992,0.0,0.0,0.0,NAVIGATE,-1,0
12.339577596044045,0.9659622689308511,1.6751452913389062,1.240425451146106,0.24938956781049965,0.776378870193366,-0.5788269978020809,1.0000000000000027,0.0,0.0,0.0,NAVIGATE,-1,0
12.482757820700828,0.9873880275954159,1.7028352638458115,1.3792590890764778,0.14964188466615685,0.19339243651335836,0.9696425484955734,1.0000000000000016,0.0,0.0,0.0,NAVIGATE,-1,0
12.613955090366904,0.883208559901598,1.7778148022219673,1.3521034100430842,-0.794067345753275,0.5715022771967275,-0.206983568351005,1.0000000000000058,0.0,0.0,0.0,NAVIGATE,-1,0
12.680241012918849,0.9071511589645904,1.7175682805533632,1.3382855916369276,0.3612018682282035,-0.9088886350098259,-0.20845781237076844,0.9999999999999877,0.0,0.0,0.0,NAVIGATE,-1,0
12.71634617243024,0.9301845813622192,1.740250326211708,1.3222055169869686,0.6379537636542321,0.6282217269027225,-0.44536777755781626,1.0000000000000135,0.0,0.0,0.0,NAVIGATE,-1,0
12.833503927952126,0.9455191622010263,1.6696285783963953,1.2299918572345534,0.1308883118364498,-0.6027919150612279,-0.787089675298442,0.9999999999999926,0.0,0.0,0.0,NAVIGATE,-1,0
12.91840599852436,0.8799844899015343,1.6274037504922358,1.263616732290304,-0.7718854423430778,-0.49733566707581073,0.3960430508834635,0.9999999999999961,0.0,0.0,0.0,NAVIGATE,-1,0
13.061681140863842,0.9942305213358085,1.6796769603077675,1.3324870615293825,0.7973890625323913,0.3648449337546181,0.48068581970691365,1.0000000000000024,0.0,0.0,0.0,NAVIGATE,-1,0
13.148118438365598,0.9533593788426505,1.655407219208293,1.4046807993303565,-0.4728415125695862,-0.2807785736126389,0.8352151199487334,1.0000000000000098,0.0,0.0,0.0,NAVIGATE,-1,0
13.30410536427414,1.0824517196021755,1.7154375999195872,1.3409356661570664,0.8275843632896174,0.3848423857425811,-0.408656897377831,0.999999999999999,0.0,0.0,0.0,NAVIGATE,-1,0
13.39819685068148,1.0095407012604187,1.759859653352925,1.380481492580044,-0.7748949572983799,0.4721155455130789,0.4202912286003876,0.9999999999999967,0.0,0.0,0.0,NAVIGATE,-1,0
13.484687419665573,1.0148628798762567,1.6900907486648422,1.32964260120151,0.0615347855650802,-0.8066648827447792,-0.5877969352691395,0.9999999999999909,0.0,0.0,0.0,NAVIGATE,-1,0
13.668261393726501,0.9518237106894863,1.8611945176586613,1.3508314505538006,-0.3433992727413932,0.9320698637652698,0.11542403796988161,0.9999999999999996,0.0,0.0,0.0,NAVIGATE,-1,0
13.818536905827951,1.0282457346825091,1.7318755013129448,1.346473033692222,0.5085460892752164,-0.8605461697472988,-0.0290028415184261,1.000000000000003,0.0,0.0,0.0,NAVIGATE,-1,0
13.895959590881462,1.025658177582508,1.7776698990974948,1.2840995630440386,-0.033421174920667394,0.5914855284713908,-0.8056226751251723,0.9999999999999986,0.0,0.0,0.0,NAVIGATE,-1,0
14.020268059908584,0.9825556814094828,1.759891013769498,1.3993327246426648,-0.3467382110837591,-0.14302231752301361,0.9269936513616313,0.9999999999999943,0.0,0.0,0.0,NAVIGATE,-1,0
14.115871908718047,1.058033196287829,1.7077352486664688,1.4262216967592978,0.7894819697978094,-0.5455404332829247,0.2812540755573813,0.9999999999999937,0.0,0.0,0.0,NAVIGATE,-1,0
14.187084428791335,1.0923844087698011,1.7451520885356715,1.3763098012792712,0.4823760266680554,0.5254250211998556,-0.7008865214804882,0.999999999999974,0.0,0.0,0.0,NAVIGATE,-1,0
14.255504895380435,1.0442066551530327,1.7611718077423655,1.330444423255635,-0.7041424301605678,0.23413636306955826,-0.6703458820162931,1.000000000000036,0.0,0.0,0.0,NAVIGATE,-1,0
14.406400918718468,1.1349517635850639,1.8663962353396282,1.389289601407454,0.6013750821567144,0.6973306868501218,0.38997169607310145,0.9999999999999944,0.0,0.0,0.0,NAVIGATE,-1,0
14.510424370009739,1.0507582689193138,1.8179101706406124,1.4264572675235598,-0.8093703258316645,-0.46610705660257673,0.35730083605892377,0.9999999999999891,0.0,0.0,0.0,NAVIGATE,-1,0
14.581948069939825,1.0602549465391857,1.8395126966256945,1.358938502450899,0.13277665485922627,0.3020331163823781,-0.9440054854357315,1.0000000000000042,0.0,0.0,0.0,NAVIGATE,-1,0
14.646881433618692,1.0994254651782778,1.7891154189180591,1.3708601880639424,0.6032417915821088,-0.7761384110159365,0.18359876860843088,1.0000000000000335,0.0,0.0,0.0,NAVIGATE,-1,0
14.669820189754333,1.087524328463608,1.801398638516772,1.386146521641322,-0.5188222344880481,0.5354788867399723,0.6663976672051748,0.9999999999999751,0.0,0.0,0.0,NAVIGATE,-1,0
14.683780853108889,1.0811259263429807,1.8033769496315044,1.3738971601585643,-0.45831648239975714,0.14170609694465716,-0.8774197308296263,0.9999999999998547,0.0,0.0,0.0,NAVIGATE,-1,0
14.763893620755614,1.014659544004391,1.7785173398882284,1.3367181961836143,-0.8296602937460377,-0.3103077134084312,-0.4640828805078747,1.0000000000000084,0.0,0.0,0.0,NAVIGATE,-1,0
14.92114005567833,1.1583743082797324,1.7580548257503428,1.3971648118071986,0.913946089435819,-0.13013022615070677,0.38440690660676907,1.0000000000000226,0.0,0.0,0.0,NAVIGATE,-1,0
15.05570714631999,1.0784542443527378,1.8538348607418809,1.447635299844127,-0.593904969973784,0.7117641804903966,0.3750581795019019,1.000000000000004,0.0,0.0,0.0,NAVIGATE,-1,0
15.131033778161395,1.1423534612032213,1.8249479716767694,1.4201300423356964,0.8482951552250373,-0.3834883939312595,-0.3651465203746435,0.9999999999999785,0.0,0.0,0.0,NAVIGATE,-1,0
15.270850429593946,1.0580468029726773,1.9353841970897512,1.4357800746788536,-0.6029800983412544,0.7898646139888278,0.11193253580891989,0.9999999999999819,0.0,0.0,0.0,NAVIGATE,-1,0
15.35815660500129,1.1308799923148307,1.9591065955055322,1.3938880395419517,0.8342272353855414,0.2717150110527654,-0.47982900340607726,1.0000000000000386,0.0,0.0,0.0,NAVIGATE,-1,0
15.416714950964183,1.1615063693417274,1.9119746347785942,1.410310073220836,0.5230061833765512,-0.8048717898692693,0.2804388240284378,0.9999999999999605,0.0,0.0,0.0,NAVIGATE,-1,0
15.50048349147433,1.0856425671806738,1.9259070210336868,1.3776337742549496,-0.9056359547276984,0.16632003100740245,-0.39007840851575987,1.0000000000000207,0.0,0.0,0.0,NAVIGATE,-1,0
15.660939221071226,1.231198682388293,1.9046167142489114,1.4417132664747598,0.9071418987236676,-0.13268648516486076,0.3993593272162593,1.0000000000000044,0.0,0.0,0.0,NAVIGATE,-1,0
15.743820618626952,1.1543611908673785,1.9228365395424554,1.4165465439262006,-0.927077652970951,0.21983009252822697,-0.3036474201781923,0.9999999999999838,0.0,0.0,0.0,NAVIGATE,-1,0
15.836876526398116,1.2071157443091556,1.8560252597969857,1.3789618135021728,0.5669124583847669,-0.7179692439277089,-0.4038940817863283,1.0000000000000036,0.0,0.0,0.0,NAVIGATE,-1,0
15.924504414661522,1.2784000897912753,1.9069136767892723,1.3817109782315289,0.8134892543323907,0.5807331204800723,0.03137317107416972,1.0000000000000202,0.0,0.0,0.0,NAVIGATE,-1,0
16.03925107492878,1.1731376111416325,1.8836901438385127,1.4210463840170011,-0.9173467742283121,-0.20238961985184506,0.3428021843411826,0.9999999999999751,0.0,0.0,0.0,NAVIGATE,-1,0
16.09422276418586,1.1990376066787192,1.9308022105939746,1.4095777303477721,0.4711515306717799,0.8570241772112573,-0.20862836533174067,0.999999999999994,0.0,0.0,0.0,NAVIGATE,-1,0
16.13320606671308,1.1849888378574414,1.926364410081512,1.445669777908787,-0.3603791344119498,-0.11383849558061855,0.9258335036087836,1.00000000000004,0.0,0.0,0.0,NAVIGATE,-1,0
16.203314693495503,1.2095180929575866,1.92989165053171,1.380087053290516,0.34987499008174117,0.05031107599845725,-0.9354444328484823,1.0000000000000198,0.0,0.0,0.0,NAVIGATE,-1,0
16.29041342194724,1.265127128725662,1.8865848113617125,1.4312567837955525,0.6384597887544403,-0.4972155155398786,0.587491131209699,1.0000000000000018,0.0,0.0,0.0,NAVIGATE,-1,0
16.40169217861581,1.237398910975913,1.991250073008154,1.456933439158109,-0.24917799748907793,0.9405682160717544,0.23074175279501732,0.9999999999999931,0.0,0.0,0.0,NAVIGATE,-1,0
16.470475529489484,1.2824517019979067,1.9446100381047637,1.4798703640337272,0.6549955832296884,-0.6780715727131251,0.33346623251524826,0.9999999999999821,0.0,0.0,0.0,NAVIGATE,-1,0
16.576273970328035,1.2414674192341963,1.9097995676450887,1.3887559864822752,-0.3873807821634385,-0.32902630874112604,-0.8612071863184887,0.9999999999999881,0.0,0.0,0.0,NAVIGATE,-1,0
16.64260047025906,1.2830199647453955,1.958270760152825,1.3707800567005382,0.6264848221210226,0.7307967789366541,-0.2710218359242587,0.9999999999999769,0.0,0.0,0.0,NAVIGATE,-1,0
16.775329845778344,1.3445322140043954,2.0326933183538016,1.461854823500457,0.4634411110452601,0.5607090209669869,0.6861688789207602,0.9999999999999974,0.0,0.0,0.0,NAVIGATE,-1,0
16.88771323390148,1.2870516587441627,1.9472499952842055,1.4168498211581035,-0.5114684315910912,-0.7602842777437767,-0.40045956163061086,1.000000000000004,0.0,0.0,0.0,NAVIGATE,-1,0
17.014809426171414,1.4024371861686842,2.0005173771920877,1.418335814146292,0.90785982934452,0.41911076135742537,0.011691876535785403,0.9999999999999949,0.0,0.0,0.0,NAVIGATE,-1,0
17.13966416926526,1.3343346717411353,2.0209744802449494,1.5209626202758812,-0.5454539630613847,0.16384722394955778,0.8219696231520122,1.0000000000000038,0.0,0.0,0.0,NAVIGATE,-1,0
17.340784019746856,1.3441329766108971,1.8849665981072627,1.3731281064577585,0.04871873584978847,-0.676252900009649,-0.7350568005302407,1.0000000000000078,0.0,0.0,0.0,NAVIGATE,-1,0
17.37216361884549,1.316877459675513,1.8914467379909365,1.3872640119209432,-0.8685744151705785,0.20650805204059114,0.4504807540323095,1.000000000000015,0.0,0.0,0.0,NAVIGATE,-1,0
17.46735752622222,1.3455462591121312,1.9682904365039642,1.4355861180355443,0.30116212504190837,0.807233368506661,0.5076176348489095,0.9999999999999849,0.0,0.0,0.0,NAVIGATE,-1,0
17.575170793045817,1.4526167021057104,1.976694479596392,1.4261525185085318,0.9931100888424587,0.07794999020091338,-0.08749943123834264,1.000000000000016,0.0,0.0,0.0,NAVIGATE,-1,0
17.69738707022451,1.3515084432339592,1.9324570371164302,1.4786595378314238,-0.8272896311832453,-0.36196031740748974,0.4296237828134856,1.0000000000000049,0.0,0.0,0.0,NAVIGATE,-1,0
17.798024373311847,1.3222203690589474,2.025881869408107,1.4553813034679017,-0.2910260239147603,0.9283320342020718,-0.23130820927624252,0.9999999999999866,0.0,0.0,0.0,NAVIGATE,-1,0
17.860657903524903,1.3605418676127181,1.9819334388844514,1.478249563350333,0.6118367976931125,-0.7016757697380225,0.3651121021702282,0.9999999999999861,0.0,0.0,0.0,NAVIGATE,-1,0
17.92329051804921,1.3904539141115082,1.997790331995506,1.4255554192993147,0.47757940054029263,0.25317309889563183,-0.8413211623245853,1.0000000000000169,0.0,0.0,0.0,NAVIGATE,-1,0
18.034629280938056,1.335754926445019,1.925342332548307,1.4900195817927362,-0.49128431327279704,-0.6506988003767126,0.5789911870835049,0.9999999999999913,0.0,0.0,0.0,NAVIGATE,-1,0
18.224936005537163,1.4442186017867522,2.080426710291534,1.4699916927626904,0.5699413700184185,0.8149180123294207,-0.10524004904312115,1.000000000000002,0.0,0.0,0.0,NAVIGATE,-1,0
18.445565870784588,1.3318375451683757,1.954348906592865,1.3280324628163656,-0.5093646614539113,-0.571444865622701,-0.6434270799518694,0.9999999999999969,0.0,0.0,0.0,NAVIGATE,-1,0
18.71171977550516,1.366759015488701,1.9961147295216697,1.5885588682799079,0.1312078075915833,0.15692357762946832,0.978856221316996,1.0000000000000047,0.0,0.0,0.0,NAVIGATE,-1,0
18.852872290552305,1.404653993540365,1.9656874200461527,1.456036485337705,0.26846831626773854,-0.21556335333701973,-0.9388595229630814,1.0,0.0,0.0,0.0,NAVIGATE,-1,0
18.875948376750657,1.426327007611855,1.9735727995410395,1.4552573797528325,0.9391980028675121,0.3417121702141231,-0.033762466398143065,1.0000000000000273,0.0,0.0,0.0,NAVIGATE,-1,0
18.905579935166053,1.4024759632139892,1.9911159552944862,1.4564383206770042,-0.8049203509145652,0.59204296674223,0.03985416182356636,1.0000000000000135,0.0,0.0,0.0,NAVIGATE,-1,0
18.95144459639672,1.4300331174038035,2.0262118293565736,1.4458340749904603,0.6008363182106906,0.7652051300581995,-0.23120732612003897,0.9999999999999711,0.0,0.0,0.0,NAVIGATE,-1,0
19.033668702508503,1.4944758807433252,2.0647060577023537,1.412276240389415,0.7837453806054304,0.4681623208338304,-0.4081264751656078,0.9999999999999863,0.0,0.0,0.0,NAVIGATE,-1,0
19.20895372905804,1.4612990070320682,1.936893765957092,1.5275504945056033,-0.1892738607760127,-0.7291683394824374,0.6576389118075076,0.9999999999999977,0.0,0.0,0.0,NAVIGATE,-1,0
19.349079640463085,1.385226909254718,1.9616060328030702,1.4124956777694886,-0.5428838750419163,0.17635758153640707,-0.8210816656424174,1.000000000000012,0.0,0.0,0.0,NAVIGATE,-1,0
19.46863011804771,1.4474792939914827,1.9897312539554426,1.5106074977527502,0.5207205022890762,0.23525812460651824,0.8206727565250628,1.0000000000000044,0.0,0.0,0.0,NAVIGATE,-1,0
19.512258847418458,1.4366022687950584,1.9476685242921674,1.5145928613066142,-0.24930877780082486,-0.9641062270192208,0.09134722948259998,0.9999999999999626,0.0,0.0,0.0,NAVIGATE,-1,0
19.699259437149,1.5572270994988722,2.077041719672184,1.4539179316040498,0.6450505363519355,0.6918330876198687,-0.3244638414776876,1.0000000000000093,0.0,0.0,0.0,NAVIGATE,-1,0
19.843767140513126,1.4254825550497758,2.1232352320615595,1.4912275919161864,-0.9116783491958884,0.31966124513776456,0.2581845773171318,0.9999999999999961,0.0,0.0,0.0,NAVIGATE,-1,0
19.94850970466974,1.4763697468284303,2.061858354704771,1.559156800544836,0.485831067707747,-0.5859783732716042,0.6485349024593353,1.0000000000000122,0.0,0.0,0.0,NAVIGATE,-1,0
20.09501573214575,1.5544975389488713,2.054211947657395,1.4354571778920031,0.5332735687836027,-0.05219175742532561,-0.8443312864591,1.0000000000000113,0.0,0.0,0.0,NAVIGATE,-1,0
20.209510698237445,1.4872319181431422,1.9816314942601223,1.4930463374847986,-0.587498499731935,-0.6339182924351957,0.5029842058442531,1.0000000000000013,0.0,0.0,0.0,NAVIGATE,-1,0
20.31852465957856,1.5764568904729663,1.9928165400473095,1.4314196968919242,0.8184728931244863,0.10260195712169358,-0.5653096157109482,1.0000000000000142,0.0,0.0,0.0,NAVIGATE,-1,0
20.432531949741584,1.5315401277961418,1.9434092545747013,1.523826767958905,-0.3939814955043345,-0.4333695275272208,0.8105365098569091,1.0000000000000089,0.0,0.0,0.0,NAVIGATE,-1,0
20.545128256204084,1.6020635224469182,2.030828718505481,1.5159390330506555,0.6263384374359051,0.7763972609518484,-0.07005322959573794,0.9999999999999885,0.0,0.0,0.0,NAVIGATE,-1,0
20.62347620378468,1.5763927110499114,1.964897449238933,1.4822867216112725,-0.32765135768999354,-0.8415187800385547,-0.42952384176707364,1.0000000000000098,0.0,0.0,0.0,NAVIGATE,-1,0
20.768201231877942,1.5090379634103714,2.067598310993246,1.4057282163885934,-0.4653980622904833,0.7096275129974868,-0.5289928510039338,1.0000000000000024,0.0,0.0,0.0,NAVIGATE,-1,0
21.032401047212936,1.680714338749479,1.959777824386903,1.5751493108291659,0.6497974842315063,-0.4081020513569677,0.6412612144552561,0.9999999999999949,0.0,0.0,0.0,NAVIGATE,-1,0
21.18564026941268,1.5824920509932638,2.0682538649320703,1.5296785505984336,-0.6409735467606619,0.707886916861083,-0.2967305600876915,0.9999999999999936,0.0,0.0,0.0,NAVIGATE,-1,0
21.263460047150478,1.506444442976259,2.051893372484369,1.527439486302594,-0.9772272580016393,-0.21023566146418118,-0.028772432419221818,1.0000000000000016,0.0,0.0,0.0,NAVIGATE,-1,0
21.470857538476544,1.6988954580661995,2.126468404035371,1.5070706162219052,0.9279331869418458,0.35957537901823833,-0.09821174764676989,0.9999999999999966,0.0,0.0,0.0,NAVIGATE,-1,0
21.65728781832714,1.5653653030116181,1.9965801283318254,1.4996555794026307,-0.7162471416209345,-0.6967123356121986,-0.039773779373269036,0.9999999999999986,0.0,0.0,0.0,NAVIGATE,-1,0
21.76012840489116,1.6069399969224443,2.0822798963827323,1.538427745025317,0.4042634848737102,0.833326324889828,0.37701229561298655,0.9999999999999988,0.0,0.0,0.0,NAVIGATE,-1,0
21.809027190442585,1.5911664280651991,2.0722083118454053,1.4932519889296239,-0.32257588157596123,-0.20596798926089513,-0.9238625374076532,0.9999999999999961,0.0,0.0,0.0,NAVIGATE,-1,0
21.880624495093794,1.554121210112164,2.0765365071271358,1.5543673927631376,-0.5174107898824267,0.06045193045765475,0.853599225993784,1.0000000000000004,0.0,0.0,0.0,NAVIGATE,-1,0
21.98904385166671,1.6082157481233614,2.0105964083530687,1.487431294798689,0.49893800997441456,-0.6081948911928798,-0.6173814352000081,0.9999999999999849,0.0,0.0,0.0,NAVIGATE,-1,0
22.077788685603963,1.6420372171690112,2.0477860803316776,1.5605659793216147,0.3811091592054096,0.4190629508068528,0.8241007535676556,0.9999999999999893,0.0,0.0,0.0,NAVIGATE,-1,0
22.18563020247278,1.6591503245094277,2.039376696194778,1.4544235439992566,0.15868756150039734,-0.07797909730005992,-0.9842446434750595,1.0000000000000107,0.0,0.0,0.0,NAVIGATE,-1,0
22.29343822197862,1.7209224372019252,2.0422657292256607,1.5427322562049213,0.5729825385499435,0.026797941786938586,0.8191293431643252,0.9999999999999862,0.0,0.0,0.0,NAVIGATE,-1,0
22.420269982424415,1.6555706683269524,2.039581820526397,1.4340665376144384,-0.515263437527558,-0.021161172011095904,-0.8567705613210588,1.0000000000000004,0.0,0.0,0.0,NAVIGATE,-1,0
22.50751624687095,1.6743574921041167,1.9823979033516457,1.4972247954180837,0.2153309817485313,-0.6554311240430757,0.7239078739279382,1.0000000000000118,0.0,0.0,0.0,NAVIGATE,-1,0
22.61513849923063,1.6871975918500988,2.0761227832379996,1.5485407571821608,0.11930710856217576,0.8708689683720854,0.47681553432441176,1.0000000000000007,0.0,0.0,0.0,NAVIGATE,-1,0
22.7000230469246,1.6918384227131296,1.9937449311742859,1.5684841424384215,0.05467226944251513,-0.9704693528050086,0.23494718176695023,0.9999999999999998,0.0,0.0,0.0,NAVIGATE,-1,0
22.821584644615985,1.6419035048776458,2.1037574895053726,1.5819363921943124,-0.4107787227530181,0.9049943437760718,0.11066200190986897,0.9999999999999917,0.0,0.0,0.0,NAVIGATE,-1,0
22.935355452241915,1.7536171099423392,2.097910830829277,1.6026652053207595,0.9819180103915591,-0.05138979671585768,0.18219799576884482,0.9999999999999996,0.0,0.0,0.0,NAVIGATE,-1,0
23.093423811696656,1.6192485793804368,2.0548573244582444,1.5314114345818892,-0.8500659526385169,-0.27237270330093993,-0.450778201182456,0.999999999999991,0.0,0.0,0.0,NAVIGATE,-1,0
23.230419911563665,1.7470888628387091,2.020960416834284,1.5671296786262485,0.9331673206928914,-0.24742972724673432,0.26072453215115887,0.9999999999999918,0.0,0.0,0.0,NAVIGATE,-1,0
23.28111284905606,1.7769467512454575,2.0573890998159383,1.5858708490198077,0.5889950333066993,0.7186145602061106,0.3696998304028097,1.000000000000024,0.0,0.0,0.0,NAVIGATE,-1,0
23.372745644956975,1.809780492933725,1.9980871589332858,1.524212155399874,0.35831867144784935,-0.6471693927879062,-0.6728889259977151,0.9999999999999887,0.0,0.0,0.0,NAVIGATE,-1,0
23.418044433146225,1.7670998491761578,1.9947620079385733,1.5390204716686677,-0.9422027710599119,-0.07340485535331952,0.32690314378670415,1.0000000000000244,0.0,0.0,0.0,NAVIGATE,-1,0
23.468733098755944,1.7524177963317793,2.0175977147981974,1.581825946059103,-0.2896515950414617,0.45050913424016875,0.8444782255666153,1.0000000000000142,0.0,0.0,0.0,NAVIGATE,-1,0
23.568503347638984,1.6722294498969708,1.9594240201396915,1.5700042326463184,-0.8037300430994506,-0.5830765715208606,-0.11848936476687794,1.000000000000012,0.0,0.0,0.0,NAVIGATE,-1,0
23.683023636046894,1.6811342975183305,2.0351261253099056,1.4845361601357658,0.07775781693494886,0.6610366269823802,-0.7463138077868254,1.0000000000000009,0.0,0.0,0.0,NAVIGATE,-1,0
23.86524462966659,1.7070108691363863,2.046401511948089,1.6645577122155244,0.14200653340778727,0.06187753899375495,0.9879298126069412,1.0000000000000033,0.0,0.0,0.0,NAVIGATE,-1,0
23.986319782374128,1.7713537057716449,2.07834871978722,1.5670971156230291,0.5314289116833245,0.2638626268455024,-0.8049595182251509,0.9999999999999992,0.0,0.0,0.0,NAVIGATE,-1,0
24.063611397964895,1.720341786005682,2.0214877227378993,1.555324057525027,-0.6599929290656056,-0.7356683724969714,-0.1523199897947101,1.0000000000000002,0.0,0.0,0.0,NAVIGATE,-1,0
24.167165176433237,1.7929705622808998,2.0946148134702094,1.5452804280583652,0.7013628797467929,0.7061750118047708,-0.09698950260643747,1.0000000000000133,0.0,0.0,0.0,NAVIGATE,-1,0
24.277736174377683,1.8666284655881284,2.0713934331822195,1.6244083394697895,0.6661593426536343,-0.2100133011339642,0.7156298928511091,0.9999999999999987,0.0,0.0,0.0,NAVIGATE,-1,0
24.358785878167808,1.880621995317149,2.021345608948659,1.56221146736454,0.17265368131703804,-0.6174954613425554,-0.7673917262709045,1.0000000000000098,0.0,0.0,0.0,NAVIGATE,-1,0
24.4771398684139,1.794430340077965,2.102407280693526,1.5649811150368818,-0.7282530572899701,0.684908650534863,0.023401388213298777,0.9999999999999926,0.0,0.0,0.0,NAVIGATE,-1,0
24.604350083765986,1.8098269991511984,2.126169364928744,1.6890002471581205,0.12103319714237704,0.18679383703148714,0.9749148822520631,1.0000000000000027,0.0,0.0,0.0,NAVIGATE,-1,0
24.84150485099253,1.7989697829738567,1.9528105616128482,1.5275343690660785,-0.04578114243417397,-0.7309943854103295,-0.6808460145260399,0.999999999999998,0.0,0.0,0.0,NAVIGATE,-1,0
24.933778148877504,1.8140903863666547,2.0435580175399504,1.534649711529106,0.16386759484468305,0.9834638839962597,0.07711160894993882,1.0000000000000189,0.0,0.0,0.0,NAVIGATE,-1,0
25.000872606492223,1.7517570416662396,2.059499414252195,1.5156209897660606,-0.9290386555974032,0.23759632731195252,-0.2836109335932844,1.0000000000000064,0.0,0.0,0.0,NAVIGATE,-1,0
25.119714168761053,1.8445784304981945,2.0404440293100707,1.5873454556233326,0.7810515703419021,-0.16034276711222642,0.6035301496207595,1.0000000000000064,0.0,0.0,0.0,NAVIGATE,-1,0
25.198325090336276,1.8235959536021913,1.9807880799302389,1.5406487709679364,-0.2669155439925112,-0.7588760974230178,-0.5940228624684454,1.0000000000000067,0.0,0.0,0.0,NAVIGATE,-1,0
25.29876976040557,1.851855285714502,2.0711867538864874,1.57409457251084,0.28134227622845015,0.8999847766325998,0.3329773647504669,1.0000000000000007,0.0,0.0,0.0,NAVIGATE,-1,0
25.421416850128235,1.8432194818142291,1.978643915421057,1.49407235961219,-0.07041181262270953,-0.7545457350410182,-0.652459125443574,0.9999999999999997,0.0,0.0,0.0,NAVIGATE,-1,0
25.580820024077603,1.913125143245727,2.0596275104782675,1.61224269301515,0.4385462327977383,0.5080425505387592,0.7413298648651441,0.9999999999999942,0.0,0.0,0.0,NAVIGATE,-1,0
25.69237939099583,1.9494765810855288,1.9549129931372478,1.5996357436533335,0.32584836974243425,-0.9386438829271689,-0.11300664130747257,0.9999999999999953,0.0,0.0,0.0,NAVIGATE,-1,0
25.846280582980043,1.834073907322244,2.0566931214083786,1.602569217968655,-0.7498491225144078,0.6613342428275035,0.019060764101310013,0.9999999999999902,0.0,0.0,0.0,NAVIGATE,-1,0
25.947703332046693,1.9312140604329437,2.080203815561999,1.5853177849185842,0.9577747990923027,0.23180888281947706,-0.1700943152185122,0.9999999999999847,0.0,0.0,0.0,NAVIGATE,-1,0
25.99381935719383,1.946993758551716,2.040120562645922,1.5688550470442983,0.34217385536646755,-0.8691827361137349,-0.3569851872914169,0.9999999999999993,0.0,0.0,0.0,NAVIGATE,-1,0
26.05756336081387,1.960864130244917,2.0181692169934324,1.5106395060724127,0.21759492509880762,-0.3443672252426251,-0.9132708594661101,1.000000000000014,0.0,0.0,0.0,NAVIGATE,-1,0
26.235869919824143,1.7926026105193704,2.076860705940413,1.5045897878211067,-0.943664218857208,0.3291605719540526,-0.03392874768536913,1.0000000000000004,0.0,0.0,0.0,NAVIGATE,-1,0
26.425857320521978,1.8999207435559016,1.9882789249851667,1.6339393097694699,0.5648697368475258,-0.4662508178430814,0.68083210504094,1.0000000000000064,0.0,0.0,0.0,NAVIGATE,-1,0
26.58563371010135,1.988321631465106,2.0893706388162254,1.5473700133729789,0.5532787925796037,0.6327074613288731,-0.5418153246821551,1.0000000000000002,0.0,0.0,0.0,NAVIGATE,-1,0
26.723882667658412,1.9632680862785157,1.9698175341250035,1.6121168225444507,-0.18122049980919258,-0.8647667715098549,0.46833488161925924,0.9999999999999983,0.0,0.0,0.0,NAVIGATE,-1,0
26.821835344153456,2.014182210525589,2.04456052895529,1.6497461131103957,0.5197828795382545,0.7630520931612109,0.3841578598196731,1.0000000000000082,0.0,0.0,0.0,NAVIGATE,-1,0
26.998954656124273,1.8630851924217777,1.9724824693529677,1.5919041290752993,-0.8530804259713192,-0.40694636175076365,-0.32657073580224155,1.000000000000004,0.0,0.0,0.0,NAVIGATE,-1,0
27.25146971277215,2.113185422198177,1.946237945415544,1.6148160007354386,0.9904368994723171,-0.1039325111374277,0.09073467524785708,1.000000000000001,0.0,0.0,0.0,NAVIGATE,-1,0
27.463108796543843,1.947464230429422,2.0732965632994356,1.6492208841083142,-0.783036804050462,0.6003551689013948,0.162563940269133,1.000000000000005,0.0,0.0,0.0,NAVIGATE,-1,0
27.537558205413994,2.0186241846133233,2.054466880022859,1.6603751850440096,0.955816241711368,-0.25291917776563666,0.1498239019620662,1.0000000000000144,0.0,0.0,0.0,NAVIGATE,-1,0
27.62045988876398,2.0183666056958964,2.004533563957724,1.5941990057790991,-0.003107040858741334,-0.6023196881821177,-0.7982489207792792,0.9999999999999927,0.0,0.0,0.0,NAVIGATE,-1,0
27.673157510890643,2.045269185352373,1.966218906387665,1.6183915170361234,0.5105084170935222,-0.7270661563811199,0.4590816488621565,1.0000000000000726,0.0,0.0,0.0,NAVIGATE,-1,0
27.705262782964756,2.0761197523340007,1.9626618925848744,1.6102466619317566,0.9609190325630043,-0.11079220243265489,-0.2536921377138659,0.9999999999997647,0.0,0.0,0.0,NAVIGATE,-1,0
27.87187233258753,1.9909832860507803,2.1012534299443537,1.5741508185886972,-0.5109939164710601,0.8318342956527365,-0.216649306265969,1.000000000000021,0.0,0.0,0.0,NAVIGATE,-1,0
27.945776388021503,2.011109088174461,2.0544553250830067,1.627692380761026,0.27232337935312395,-0.6332278328508811,0.7244739393247845,1.0000000000000502,0.0,0.0,0.0,NAVIGATE,-1,0
28.14642115493665,2.1269881310728573,1.8952540950540175,1.5891522942971754,0.5775333425336824,-0.7934482043895796,-0.19208119432364368,0.9999999999999866,0.0,0.0,0.0,NAVIGATE,-1,0
28.240388175934907,2.055486943687202,1.9503205663906418,1.6153260401555787,-0.7609178904052099,0.5860191240674311,0.27854182861547644,0.9999999999999638,0.0,0.0,0.0,NAVIGATE,-1,0
28.33776730995174,1.9658165793428442,1.9337034970678983,1.6494697732166006,-0.9208375618626572,-0.1706430180398908,0.35062678884697945,1.0000000000000349,0.0,0.0,0.0,NAVIGATE,-1,0
28.47503651876366,2.0796220950314996,1.9118579296349938,1.5758904862519718,0.8290680530153537,-0.15914397425307927,-0.5360217896020982,0.999999999999985,0.0,0.0,0.0,NAVIGATE,-1,0
28.61308628059632,2.061320899702999,2.007003558578755,1.674227215323563,-0.13256955380107502,0.6892125540867858,0.7123281327409388,1.0000000000000195,0.0,0.0,0.0,NAVIGATE,-1,0
28.705903211390027,2.151961880845863,2.0008643939470776,1.693240522165021,0.9765565438090335,-0.06614272395326382,0.20484739884059464,0.99999999999998,0.0,0.0,0.0,NAVIGATE,-1,0
28.778046704603366,2.183815584844557,1.9835270909772567,1.630875122460377,0.44153259815819756,-0.24031693223603603,-0.8644632651793034,1.0000000000000653,0.0,0.0,0.0,NAVIGATE,-1,0
28.864284172452958,2.117141725577502,1.999179511698935,1.6832821742482635,-0.7731425902177633,0.18150371424376582,0.6077062916468059,1.0000000000000138,0.0,0.0,0.0,NAVIGATE,-1,0
28.877451093715887,2.1086766996753328,2.0084030264369552,1.6873611358682579,-0.64290092825283,0.7005065613924967,0.3097885632139745,1.0000000000002343,0.0,0.0,0.0,NAVIGATE,-1,0
28.99655103898903,2.1976166607635217,1.9310345120948216,1.6703731026040156,0.746767438760912,-0.6496099907073676,-0.14263678480525058,0.999999999999969,0.0,0.0,0.0,NAVIGATE,-1,0
29.100258860319737,2.1248097083797775,2.002993048235041,1.6537469495218962,-0.70203916589448,0.6938583340860529,-0.1603172534991474,0.9999999999999999,0.0,0.0,0.0,NAVIGATE,-1,0
29.211114207055033,2.1452679637307077,1.8976057640311663,1.6813854736490972,0.18454910794498025,-0.9506738944718851,0.24932062314682316,0.9999999999999745,0.0,0.0,0.0,NAVIGATE,-1,0
29.33325817179796,2.19146890369188,1.8389038994733362,1.5847484602056943,0.378249879626959,-0.48059570263154255,-0.7911730526087877,1.0000000000000113,0.0,0.0,0.0,NAVIGATE,-1,0
29.468278333440413,2.141842929380147,1.8582785281107959,1.7088142914757363,-0.36754491853704097,0.14349433745136414,0.9188689286166192,1.0000000000000298,0.0,0.0,0.0,NAVIGATE,-1,0
29.58376099964922,2.1509319469514874,1.8708834805370849,1.5943819921515825,0.07870460450667399,0.10915016807369035,-0.9909045494087174,0.99999999999998,0.0,0.0,0.0,NAVIGATE,-1,0
29.769989657054822,2.2047283515894383,1.9451605951893816,1.756462126424894,0.28887285870714846,0.3988490046970704,0.870328640775749,1.0000000000000233,0.0,0.0,0.0,NAVIGATE,-1,0
29.896667838400145,2.211036860551815,1.9147679337605952,1.6336457982152244,0.0497994910834723,-0.23992025387494664,-0.9695144570703477,1.0000000000000013,0.0,0.0,0.0,NAVIGATE,-1,0
30.000616697341524,2.2701243452176594,1.9611885609898825,1.561818506753572,0.5684284105433607,0.44657178252880736,-0.690986819799134,0.9999999999999644,0.0,0.0,0.0,NAVIGATE,-1,0
30.175839416572455,2.205020844734437,1.8919634389536555,1.7090340563350734,-0.37154714165473574,-0.3950693285668818,0.840162452835139,1.0000000000000242,0.0,0.0,0.0,NAVIGATE,-1,0
30.265120092675687,2.2831159702279518,1.9322630954087574,1.693281971101598,0.8747147636204716,0.45138162269856297,-0.17643331033091325,0.9999999999999648,0.0,0.0,0.0,NAVIGATE,-1,0
30.349464113490882,2.2980319300437957,1.861134761373852,1.650477904852398,0.17684667711687754,-0.8433121085222385,-0.5074937836196775,1.0000000000000604,0.0,0.0,0.0,NAVIGATE,-1,0
30.429076822341436,2.236805306531911,1.8148362540605967,1.6715950117665066,-0.7690559006956654,-0.581546689990979,0.265247938664525,1.0000000000000322,0.0,0.0,0.0,NAVIGATE,-1,0
30.55079532675257,2.233445244173217,1.9365080521575218,1.6718740187371106,-0.027605189325565212,0.999616275976808,0.0022922313411081396,0.9999999999999817,0.0,0.0,0.0,NAVIGATE,-1,0
30.690147054031765,2.2631529000627193,1.8006335804060107,1.6632434333864636,0.21318469795485484,-0.9750469147704437,-0.06193382399455579,1.000000000000026,0.0,0.0,0.0,NAVIGATE,-1,0
30.83517400615628,2.180708123172277,1.780977603575069,1.7809265595381423,-0.568479001197369,-0.13553326842355398,0.8114569356090507,0.9999999999999802,0.0,0.0,0.0,NAVIGATE,-1,0
30.958259571323577,2.1796526225745745,1.89933781863646,1.7471656092899193,-0.00857534022180259,0.9616092260738788,-0.2742884610582503,1.0000000000000135,0.0,0.0,0.0,NAVIGATE,-1,0
31.048107314923136,2.237071820021068,1.8689431707417785,1.6851025915265954,0.6390722253683311,-0.33829060894558194,-0.6907576671032636,0.9999999999999734,0.0,0.0,0.0,NAVIGATE,-1,0
31.066261734800914,2.2459312577321913,1.8607967464851851,1.6986940997715725,0.4880044512999045,-0.44872952765431623,0.7486611159420169,1.0000000000004663,0.0,0.0,0.0,NAVIGATE,-1,0
31.157204519663104,2.3153963740808234,1.8290226904742197,1.7480458686737448,0.7638331776830496,-0.3493851222954555,0.5426683268712045,0.999999999999994,0.0,0.0,0.0,NAVIGATE,-1,0
31.298621460412203,2.2843417678260054,1.9332735920027542,1.6576793256853168,-0.21959608297505748,0.7371882108063371,-0.6390079046382099,0.9999999999999762,0.0,0.0,0.0,NAVIGATE,-1,0
31.459095456158874,2.296028378687699,1.7990401199138972,1.7448383837828025,0.07282557405838277,-0.8364811473926421,0.5431350898439509,1.0000000000000204,0.0,0.0,0.0,NAVIGATE,-1,0
31.55723314099846,2.232818646799059,1.8410543055730029,1.6826263014865022,-0.6440923483365417,0.42811470158259274,-0.633926532890922,0.9999999999999694,0.0,0.0,0.0,NAVIGATE,-1,0
31.73841794397824,2.4139792741094586,1.840124535314447,1.6798164134832156,0.9998665690003508,-0.005131612824390874,-0.01550840885700588,0.9999999999999943,0.0,0.0,0.0,NAVIGATE,-1,0
31.96371505278657,2.2931210102997723,2.018763886162385,1.7449320769976455,-0.5364394796229149,0.7929056515319802,0.28902130106706087,0.9999999999999772,0.0,0.0,0.0,NAVIGATE,-1,0
32.11658691730984,2.290162176481873,1.8715680635687786,1.786095678349475,-0.019354992673938344,-0.9628705913454759,0.2692686550281697,1.000000000000037,0.0,0.0,0.0,NAVIGATE,-1,0
32.25138918816637,2.338737055028859,1.8762795040954594,1.6604376673418701,0.36034169334345323,0.034950750434279566,-0.932165387193962,1.0000000000000078,0.0,0.0,0.0,NAVIGATE,-1,0
32.37271698545601,2.4375187336057516,1.808133512849092,1.6782909093370126,0.8141718615485758,-0.5616684120926296,0.14714881827552365,1.0000000000000062,0.0,0.0,0.0,NAVIGATE,-1,0
32.49578135436135,2.3243950438318413,1.7598733179200146,1.6739523276087984,-0.9192237426653082,-0.3921540845522804,-0.03525457260136308,0.9999999999999792,0.0,0.0,0.0,NAVIGATE,-1,0
32.63841645237771,2.284291003844617,1.8225991291916055,1.7956154270398126,-0.2811652990389737,0.4397642105198745,0.8529674752076575,0.9999999999999849,0.0,0.0,0.0,NAVIGATE,-1,0
32.77523649311048,2.4129965801636697,1.816427000791565,1.7496099599569817,0.9406924280225775,-0.04511128901135006,-0.33624801481157435,1.000000000000001,0.0,0.0,0.0,NAVIGATE,-1,0
32.90718729458449,2.4206073742959084,1.8035122222885145,1.6185134370491354,0.05767902920800143,-0.09787571093756584,-0.9935257796343564,0.9999999999999836,0.0,0.0,0.0,NAVIGATE,-1,0
33.001550147169446,2.382075018034007,1.8110413082634869,1.7043208862202774,-0.4083424271983463,0.07978866438139648,0.9093350489154313,1.0000000000000169,0.0,0.0,0.0,NAVIGATE,-1,0
33.12313841341642,2.34167455916535,1.9015696596394227,1.7747206519109577,-0.3322726782417855,0.7445484187762976,0.5790013120812343,1.0000000000000224,0.0,0.0,0.0,NAVIGATE,-1,0
33.29331262636575,2.451120126048461,1.803345680023395,1.6890878283504365,0.6431383755874984,-0.5771966146555715,-0.5032068142193807,0.9999999999999983,0.0,0.0,0.0,NAVIGATE,-1,0
33.39722900424545,2.3746552604788347,1.8328860946631045,1.7529556749398696,-0.7358307432360878,0.2842710190871515,0.6146080905876716,1.0000000000000222,0.0,0.0,0.0,NAVIGATE,-1,0
33.464096211772336,2.3781164787632623,1.8423027743429456,1.68684539166837,0.05176256662185342,0.1408265729663576,-0.9886801874434605,0.9999999999999835,0.0,0.0,0.0,NAVIGATE,-1,0
33.50817000057846,2.392880575773579,1.8160016687395684,1.7189821641142233,0.3349858818642195,-0.5967516366490153,0.7291583799890646,0.9999999999999521,0.0,0.0,0.0,NAVIGATE,-1,0
33.563111025883984,2.4272621565664902,1.773201569985869,1.7211210213970967,0.6257906655676171,-0.7790189301289923,0.03893005765690125,1.0000000000000253,0.0,0.0,0.0,NAVIGATE,-1,0
33.65093406323518,2.379644327483495,1.8362362557288363,1.7594884116692724,-0.5422020294353754,0.717746591829887,0.4368715934834919,1.0000000000000318,0.0,0.0,0.0,NAVIGATE,-1,0
33.81066871172647,2.410749760342639,1.7160176439032937,1.65901405998676,0.1947319079043733,-0.7526144951080813,-0.6290078741932318,0.999999999999979,0.0,0.0,0.0,NAVIGATE,-1,0
33.945784440115396,2.3969153674513963,1.8385468895046442,1.7142540238151736,-0.10238921150186932,0.9068466496265712,0.40883444501300104,1.0000000000000002,0.0,0.0,0.0,NAVIGATE,-1,0
34.12934891295783,2.5039664598063247,1.6896434591679925,1.7222382425943947,0.5831797988863433,-0.8111778277731638,0.04349544688897711,0.9999999999999881,0.0,0.0,0.0,NAVIGATE,-1,0
34.253406599019954,2.533766332114901,1.7888076054526674,1.6539099968016602,0.24020980283038304,0.7993389964973017,-0.550778012726422,0.9999999999999957,0.0,0.0,0.0,NAVIGATE,-1,0
34.31129303301517,2.5199071616075166,1.7464019924781307,1.690795313958813,-0.23942000829641638,-0.7325656470398957,0.6372014064677396,1.0000000000000513,0.0,0.0,0.0,NAVIGATE,-1,0
34.52943517319779,2.408691733807036,1.6118548922048126,1.8216165651019331,-0.509830093843283,-0.6167863768122918,0.5997064621883739,0.9999999999999903,0.0,0.0,0.0,NAVIGATE,-1,0
34.70918081861849,2.4806438708498835,1.7242603494060593,1.7012155675394127,0.4002997506528756,0.6253584443626271,-0.6698409704486404,0.9999999999999879,0.0,0.0,0.0,NAVIGATE,-1,0
34.77603143616349,2.5319357653747736,1.6913015947804075,1.728635762938456,0.7672613419070207,-0.4930209448471523,0.410171160806188,1.0000000000000182,0.0,0.0,0.0,NAVIGATE,-1,0
34.82062765156039,2.5388439165778007,1.727058820581114,1.75437523996733,0.15490442723772546,0.8017995581569345,0.5771672954710586,0.9999999999999396,0.0,0.0,0.0,NAVIGATE,-1,0
34.98273856430696,2.4302815664968076,1.6154499810794634,1.7092351123477365,-0.6696794697017711,-0.6884720936469588,-0.27845212178998474,1.0000000000000082,0.0,0.0,0.0,NAVIGATE,-1,0
35.17712280046441,2.5413512201427535,1.7000111027061695,1.8445058779059904,0.5713922890124794,0.435020469243265,0.6958937012191032,0.9999999999999868,0.0,0.0,0.0,NAVIGATE,-1,0
35.33139437278937,2.5213536872780495,1.7605810271761724,1.7040384405525628,-0.12962552052416393,0.39261883156553307,-0.9105205530513821,1.0000000000000198,0.0,0.0,0.0,NAVIGATE,-1,0
35.458030929822606,2.5900661565295664,1.6551081406074941,1.7178545306457098,0.54259584168482,-0.8328786650524304,0.10910032945321502,0.9999999999999885,0.0,0.0,0.0,NAVIGATE,-1,0
35.567255986427895,2.5717997436017335,1.759962379609083,1.742391028207028,-0.16723647023450755,0.9599833798256044,0.22464165571446337,1.0000000000000118,0.0,0.0,0.0,NAVIGATE,-1,0
35.674325652444715,2.51671675659689,1.6687138758208389,1.7322180994259877,-0.51445931470628,-0.8522348783072697,-0.09501223978266922,0.9999999999999908,0.0,0.0,0.0,NAVIGATE,-1,0
35.78168050298015,2.543748768795283,1.5714023007503701,1.6958204125860685,0.2518005666587902,-0.9064478650486986,-0.33904091578893947,1.000000000000017,0.0,0.0,0.0,NAVIGATE,-1,0
35.9132325312872,2.4809155532865645,1.68692812103824,1.69924211206858,-0.477630153767472,0.8781758956861347,0.026010237368024183,1.0000000000000124,0.0,0.0,0.0,NAVIGATE,-1,0
36.020201834583915,2.564609044032402,1.639222910425072,1.7457399005634624,0.7824066172861351,-0.4459710322768183,0.43468347518264494,1.0000000000000222,0.0,0.0,0.0,NAVIGATE,-1,0
36.10962114199975,2.637541941602772,1.6694168537321004,1.7037288213308295,0.8156280749435983,0.3376669332341577,-0.46982112081525557,1.000000000000032,0.0,0.0,0.0,NAVIGATE,-1,0
36.17740930186731,2.6130936750114375,1.6720959643113944,1.7668979533924019,-0.36065688520092465,0.03952180711983546,0.9318608468646085,1.0000000000000377,0.0,0.0,0.0,NAVIGATE,-1,0
36.33479442645532,2.6558513892958135,1.6963215378239918,1.6173821452022776,0.27167570249287226,0.15392543339793383,-0.9499996176990292,1.0000000000000195,0.0,0.0,0.0,NAVIGATE,-1,0
36.594640310939035,2.5796277254760343,1.6126363404802824,1.8512766182078575,-0.2933418167127286,-0.3220570435817447,0.9001276794138982,0.9999999999999936,0.0,0.0,0.0,NAVIGATE,-1,0
36.7471668756996,2.608201481900545,1.5282962562344777,1.7274434902054487,0.1873362615185485,-0.5529534109563263,-0.8118790860910174,0.9999999999999838,0.0,0.0,0.0,NAVIGATE,-1,0
36.842391889260355,2.6644263409203846,1.587892905153079,1.775969852870684,0.5904421214281687,0.6258507790138188,0.5095968049852115,0.9999999999999679,0.0,0.0,0.0,NAVIGATE,-1,0
36.945029596308366,2.6911982181508765,1.6390730988010507,1.6911267430986734,0.2608386138046596,0.4986490357196997,-0.8266270965340592,1.0000000000000258,0.0,0.0,0.0,NAVIGATE,-1,0
37.01677354569224,2.6802121611686536,1.615727991113043,1.758070800132995,-0.15312868996716342,-0.3253947948014048,0.9330969037699799,1.0000000000000155,0.0,0.0,0.0,NAVIGATE,-1,0
37.068660718027935,2.6512358001440455,1.5735964802522107,1.7492625683382699,-0.5584494147636051,-0.8119831735723126,-0.1697574062764132,1.0000000000000364,0.0,0.0,0.0,NAVIGATE,-1,0
37.176712168354285,2.609376495518332,1.5969815091805997,1.846092599609041,-0.3874015989538787,0.21642494254134215,0.8961474462241205,1.0000000000000289,0.0,0.0,0.0,NAVIGATE,-1,0
37.3545268465365,2.700347141365272,1.5791889297826789,1.6943499704977587,0.511603691983842,-0.1000624896651547,-0.8533751581283056,0.9999999999999988,0.0,0.0,0.0,NAVIGATE,-1,0
37.47721144084191,2.634845448903527,1.5085049289389307,1.7702763163156037,-0.5339031590118388,-0.5761440647371511,0.6188743276831775,0.9999999999999862,0.0,0.0,0.0,NAVIGATE,-1,0
