time,x,y,z,velocity_x,velocity_y,velocity_z,speed,roll,pitch,yaw,state,target_waypoint,obstacle_avoiding
0.0,0.05294098112900671,0.0038189381457515944,0.9216651302059355,0.0,0.0,0.0,0.0,0.0,0.0,0.0,NAVIGATE,-1,0
0.11057686948823318,-0.047043422076853324,0.05093510652065422,0.9248946594368892,-0.9042072150224842,0.4260942509311715,0.02920619154711481,0.9999999999999999,0.0,0.0,0.0,NAVIGATE,-1,0
0.239420233155542,0.07402713246704032,0.01845788096721497,0.9546900114887025,0.9396724138350997,-0.2520675076234418,0.23125251626268425,0.9999999999999999,0.0,0.0,0.0,NAVIGATE,-1,0
0.359045253698563,0.0038971703864999797,0.10030347507888426,1.0065863763229377,-0.586248276173289,0.6841845772744088,0.4338253368622964,0.9999999999999998,0.0,0.0,0.0,NAVIGATE,-1,0
0.43894537359190866,0.07304690918477819,0.061811093773233586,0.9956009603307548,0.8654522532704887,-0.4817562396280765,-0.13748935554598254,1.0000000000000002,0.0,0.0,0.0,NAVIGATE,-1,0
0.4902459668935513,0.024456596193414892,0.07657052475331322,0.9883283023815479,-0.9471686361531304,0.2877048788363044,-0.14176557191930328,1.0000000000000004,0.0,0.0,0.0,NAVIGATE,-1,0
0.5751348184963083,0.01999014454512874,0.15544440130657214,1.0193940316272891,-0.052615291218536094,0.9291429329537222,0.365957704212037,1.0000000000000004,0.0,0.0,0.0,NAVIGATE,-1,0
0.6452058557266045,0.07778955871241162,0.11740538577723977,1.0304489526133322,0.8248688252939479,-0.542863600039385,0.15776733759070655,0.9999999999999994,0.0,0.0,0.0,NAVIGATE,-1,0
0.7129290777900145,0.0882884148890198,0.11779924916877217,0.9635456365724838,0.15502594024215186,0.005815780459524202,-0.9878932809517855,1.0,0.0,0.0,0.0,NAVIGATE,-1,0
0.7656864433614445,0.12786946264728194,0.1441778832494094,0.9863677299128313,0.75024685803676,0.4999990768098958,0.4325859165474784,1.0,0.0,0.0,0.0,NAVIGATE,-1,0
0.8115381573184943,0.10354947610823251,0.18086492759795011,0.999212133538838,-0.530405178786347,0.8001237289167905,0.2801291929465996,0.9999999999999998,0.0,0.0,0.0,NAVIGATE,-1,0
0.9042912770085207,0.07444375387203939,0.24903376960398874,0.9434536622102794,-0.3137977712605478,0.73494931743378,-0.6011492822548611,1.0000000000000004,0.0,0.0,0.0,NAVIGATE,-1,0
1.0127616571692573,0.10836516252661595,0.21768748767171883,1.041599329542702,0.3127250831453732,-0.28898471532799563,0.9048153715971652,0.9999999999999997,0.0,0.0,0.0,NAVIGATE,-1,0
1.0596580098486308,0.14734738351588333,0.20662882381936662,1.0179908502360462,0.8312420638719091,-0.2358107447706942,-0.5034182395391169,1.000000000000002,0.0,0.0,0.0,NAVIGATE,-1,0
1.1436506081235296,0.12637334274414122,0.2873071816193621,1.007702567513952,-0.24971296521981995,0.9605412793153966,-0.12249034954748995,1.0,0.0,0.0,0.0,NAVIGATE,-1,0
1.2116814944093657,0.07329463919458126,0.2705901212324036,0.9685695557418805,-0.7802147884204597,-0.24572751142357135,-0.5752241946055439,1.0000000000000002,0.0,0.0,0.0,NAVIGATE,-1,0
1.2979998284808179,0.13708176733737637,0.309277855762268,1.011989784634785,0.7389754312217577,0.4481983456473993,0.5030244079660091,1.000000000000001,0.0,0.0,0.0,NAVIGATE,-1,0
1.3552040823143756,0.13063482794492867,0.3202659456755666,1.0677573873193318,-0.11270034936922342,0.19208518907124758,0.9748855888726208,0.9999999999999992,0.0,0.0,0.0,NAVIGATE,-1,0
1.457615335893726,0.14478863737965475,0.3910923486238407,0.9951532883745189,0.1382056067086358,0.691588086981049,-0.708946491789183,0.9999999999999996,0.0,0.0,0.0,NAVIGATE,-1,0
1.5238999390696495,0.16827854154040217,0.40478554214392465,1.0556046694334333,0.3543794944114512,0.2065818133321457,0.9119973291304581,1.000000000000001,0.0,0.0,0.0,NAVIGATE,-1,0
1.555638089081117,0.1661296637751903,0.43200351885807636,1.0394221407654998,-0.06770645940092396,0.8575791816573245,-0.5098762423798034,1.0000000000000016,0.0,0.0,0.0,NAVIGATE,-1,0
1.572772257426036,0.149021910505549,0.4329394169380236,1.0392530321582114,-0.9984583392233555,0.054621739503615256,-0.009869671167232722,1.0000000000000056,0.0,0.0,0.0,NAVIGATE,-1,0
1.6369690840466649,0.20525738792289588,0.4132110187086764,1.0631191992385456,0.8759853154373273,-0.3073111128363438,0.37176552699982085,1.0000000000000002,0.0,0.0,0.0,NAVIGATE,-1,0
1.7250817565881682,0.18351282535120353,0.486309631292822,1.0189874657665308,-0.2467813305906719,0.8296038523824628,-0.5008556907773696,1.0000000000000009,0.0,0.0,0.0,NAVIGATE,-1,0
1.7714149317724255,0.19359124236944444,0.471240995365431,1.0616269409550136,0.21752053422113146,-0.32522346822694975,0.9202795840974564,0.9999999999999997,0.0,0.0,0.0,NAVIGATE,-1,0
1.795265229645003,0.1935058555342923,0.4740188110879338,1.0853147681561495,-0.0035801160894644744,0.11646880627418377,0.9931878975973545,1.0000000000000002,0.0,0.0,0.0,NAVIGATE,-1,0
1.8340879110559432,0.2267387553638729,0.4848166852087769,1.0683978867850794,0.8560176325228152,0.2781331357962372,-0.4357473712854587,1.0000000000000004,0.0,0.0,0.0,NAVIGATE,-1,0
1.8955496389291908,0.21164169223805085,0.5415334731022224,1.0501542947815834,-0.24563356170130246,0.9227984610262242,-0.29682849205150424,1.0000000000000027,0.0,0.0,0.0,NAVIGATE,-1,0
1.9249978783706974,0.23577071203234554,0.536758015017832,1.0663463981055823,0.8193705379984602,-0.1621644680618668,0.5498496219497775,0.9999999999999937,0.0,0.0,0.0,NAVIGATE,-1,0
1.9791020246644755,0.28660543044784226,0.5503421011547137,1.053754231746234,0.9395715836540722,0.25107292263927306,-0.23273939655150436,1.0000000000000029,0.0,0.0,0.0,NAVIGATE,-1,0
2.040855497003801,0.2501041046127429,0.5433204370400024,1.1030679295522583,-0.5910813506086015,-0.11370476588147735,0.7985574889627811,0.9999999999999961,0.0,0.0,0.0,NAVIGATE,-1,0
2.1605443795102732,0.26520060819935437,0.6460231188278736,1.0434887106190858,0.12613121010462353,0.8580803800412901,-0.4977840688749909,1.0000000000000016,0.0,0.0,0.0,NAVIGATE,-1,0
2.239249739975871,0.2884096251643852,0.570862235200327,1.0408970181483284,0.2948848315760595,-0.9549652423026467,-0.03292904645154696,1.0000000000000009,0.0,0.0,0.0,NAVIGATE,-1,0
2.3063622541347817,0.319481199899334,0.613500050204044,1.0823778996713784,0.4629773615897729,0.635318398335637,0.6180796836910403,1.0000000000000013,0.0,0.0,0.0,NAVIGATE,-1,0
2.3799030554641005,0.24994631606821793,0.6000331845791427,1.1021716593191162,-0.945527959638839,-0.18312100740643408,0.2691534398585144,1.000000000000002,0.0,0.0,0.0,NAVIGATE,-1,0
2.448630479327199,0.28340152835542576,0.6595286139385116,1.0941403800299756,0.48678111890020714,0.8656723330395864,-0.11685698135781304,0.9999999999999992,0.0,0.0,0.0,NAVIGATE,-1,0
2.481797702367268,0.28037522970399387,0.6882647119743749,1.11042358826224,-0.09124365485092999,0.8664004822214776,0.49094276637488343,0.9999999999999939,0.0,0.0,0.0,NAVIGATE,-1,0
2.536682916378709,0.24949805400568967,0.733336356438397,1.1156708354725837,-0.5625773034585955,0.8211983004134243,0.09560402204590077,0.9999999999999972,0.0,0.0,0.0,NAVIGATE,-1,0
2.582323784048071,0.29409774001609973,0.7331070873907368,1.1059804151984747,0.9771875139076043,-0.005023327981428559,-0.21231893189037723,1.000000000000002,0.0,0.0,0.0,NAVIGATE,-1,0
2.649479817104736,0.24914238615792692,0.7616513618997318,1.1468970784073613,-0.6694164591324283,0.42504408330536714,0.6092775488147446,1.0000000000000007,0.0,0.0,0.0,NAVIGATE,-1,0
2.742890544650992,0.33688927416714937,0.7694411991982268,1.1158267372396045,0.9393662838753826,0.08339339070705314,-0.33262069554453605,0.999999999999998,0.0,0.0,0.0,NAVIGATE,-1,0
2.8047789074472735,0.32432227186110746,0.7873381785557501,1.057930813095322,-0.2030592140142534,0.2891816578899466,-0.9354896708910995,1.000000000000001,0.0,0.0,0.0,NAVIGATE,-1,0
2.918098996361656,0.3748018926455789,0.7822534750510794,1.159258974172532,0.4454604763204051,-0.0448702745769313,0.8941765052246593,0.9999999999999982,0.0,0.0,0.0,NAVIGATE,-1,0
3.0097144547350556,0.34070281569096406,0.8605677471083737,1.1261301354372624,-0.3721978535067333,0.854815043746292,-0.36160752042789107,1.000000000000001,0.0,0.0,0.0,NAVIGATE,-1,0
3.0687110578427386,0.3802016992979927,0.8425530306968324,1.0861813261351616,0.6695111502425605,-0.30535175692505734,-0.6771374485609722,0.9999999999999994,0.0,0.0,0.0,NAVIGATE,-1,0
3.1695262166170175,0.3043377162928455,0.905888492892994,1.066257181243187,-0.7525057136993016,0.6282335212898601,-0.19763044699045754,1.0000000000000002,0.0,0.0,0.0,NAVIGATE,-1,0
3.284073394915313,0.3634505896660173,0.8456822047702566,1.1437292867273596,0.5160570015896352,-0.5256025422638738,0.6763336001383233,0.9999999999999987,0.0,0.0,0.0,NAVIGATE,-1,0
3.3036404726648905,0.3683524464876868,0.8645739712348997,1.1451233782606673,0.2505155283995014,0.9654873715136721,0.07124679275819974,0.9999999999999953,0.0,0.0,0.0,NAVIGATE,-1,0
3.3277199264981916,0.3799112988545215,0.8700942819667669,1.1247336946364561,0.48002967371499144,0.22925398433384694,-0.8467668646210298,0.9999999999999971,0.0,0.0,0.0,NAVIGATE,-1,0
3.411624321751814,0.3928760101358135,0.7872487926507259,1.1218201565374222,0.15451766551803262,-0.9873796130181205,-0.03472449911863419,0.999999999999998,0.0,0.0,0.0,NAVIGATE,-1,0
3.532173096662488,0.41226803583998956,0.9061794871745861,1.1252034052166142,0.16086456057762005,0.9865773800852561,0.028065392466236225,1.000000000000001,0.0,0.0,0.0,NAVIGATE,-1,0
3.561820512064886,0.43988100357093807,0.8955361955183792,1.1269960557271304,0.9313785824552873,-0.3589955991693645,0.060465659019003005,0.9999999999999968,0.0,0.0,0.0,NAVIGATE,-1,0
3.589486302766259,0.41301343300352056,0.9002248974091881,1.1223543209742437,-0.9711477563547111,0.1694765185430336,-0.16777885739792986,1.0000000000000056,0.0,0.0,0.0,NAVIGATE,-1,0
3.6336162361579025,0.43205564523683476,0.9392620488568079,1.1301611116892496,0.431503307841387,0.8845957482231773,0.17690465665838095,1.0000000000000007,0.0,0.0,0.0,NAVIGATE,-1,0
3.651415078367358,0.4357399613606793,0.9555327189306541,1.1239570892807853,0.20699751593321322,0.9141420482508987,-0.34856325683748446,1.0000000000000118,0.0,0.0,0.0,NAVIGATE,-1,0
3.6773843902301313,0.42605123283310015,0.9537371429782718,1.0999298213307234,-0.3730837605084102,-0.0691422230157804,-0.9252177368821524,0.9999999999999962,0.0,0.0,0.0,NAVIGATE,-1,0
3.707534882193058,0.450899231841818,0.9390186829976558,1.1085898471198459,0.8241324565871477,-0.48816649488552205,0.28722668272779545,0.9999999999999984,0.0,0.0,0.0,NAVIGATE,-1,0
3.8006737621745432,0.4403863521979935,1.0310512750983203,1.0988773645827818,-0.11287315937140699,0.9881221689476983,-0.10427957195743329,1.000000000000006,0.0,0.0,0.0,NAVIGATE,-1,0
3.8767572171324662,0.46669884071774553,1.0415728745987953,1.1694864363100304,0.34583719330705776,0.13829024334257534,0.9280476519671452,0.9999999999999917,0.0,0.0,0.0,NAVIGATE,-1,0
3.916337515102577,0.46084310179481713,1.0798172843996343,1.1611392554652935,-0.14794580190756493,0.9662486581005385,-0.21089231948279566,0.9999999999999987,0.0,0.0,0.0,NAVIGATE,-1,0
3.9755397066491356,0.5008312300817186,1.0703616088405852,1.1185195501665963,0.6754501352446295,-0.15971833663645502,-0.719900804097423,1.0000000000000102,0.0,0.0,0.0,NAVIGATE,-1,0
4.0212282708281615,0.5259306226708942,1.0762459178152926,1.156240105521542,0.5493583140592082,0.1287917245910885,0.825601680261645,0.999999999999987,0.0,0.0,0.0,NAVIGATE,-1,0
4.125775899354596,0.4872845416159547,1.1110684578820809,1.2469268066022046,-0.3696504798783449,0.3330782396272481,0.8674199726848184,1.000000000000004,0.0,0.0,0.0,NAVIGATE,-1,0
4.180390741584701,0.46205041827568083,1.1043646703803183,1.1989572407901365,-0.46203783275536303,-0.12274662395833648,-0.8783247163831578,0.9999999999999983,0.0,0.0,0.0,NAVIGATE,-1,0
4.239459789743589,0.5166009481208327,1.0817240796562066,1.1998493145950673,0.9235044671520432,-0.38329025826201835,0.015102220752417935,0.9999999999999993,0.0,0.0,0.0,NAVIGATE,-1,0
4.27531285862514,0.5219654104559848,1.0728590523288524,1.1655261972750268,0.14962351905982638,-0.2472599307089123,-0.9573271798136566,0.9999999999999957,0.0,0.0,0.0,NAVIGATE,-1,0
4.34975499935691,0.5199397103282223,1.1416373761417318,1.1939351928435387,-0.02721173931659891,0.9239165227757463,0.38162518285006447,1.0000000000000029,0.0,0.0,0.0,NAVIGATE,-1,0
4.3904603952690415,0.5010426271928055,1.1512802452046131,1.2286748615462284,-0.4642402490374719,0.23689412292406867,0.853441366291593,0.9999999999999992,0.0,0.0,0.0,NAVIGATE,-1,0
4.4541815887255485,0.5509677361102567,1.181644314163017,1.203260351686868,0.783492998315039,0.47651444223386996,-0.3988392005982604,1.0000000000000027,0.0,0.0,0.0,NAVIGATE,-1,0
4.492385755367759,0.5235519748539859,1.1876985997665073,1.177351279735207,-0.7176118121623951,0.15847186669950816,-0.6781739854268907,1.0000000000000078,0.0,0.0,0.0,NAVIGATE,-1,0
4.5428611430918995,0.546105092849966,1.2121159331754225,1.1393655526293636,0.4468141605813534,0.4837473174522526,-0.7525593921822692,1.0000000000000082,0.0,0.0,0.0,NAVIGATE,-1,0
4.593860704448156,0.5353389014532676,1.259856932667605,1.1537127247837515,-0.21110360776421933,0.9361060805736836,0.2813195206555999,0.9999999999999948,0.0,0.0,0.0,NAVIGATE,-1,0
4.642060232528845,0.5623294830004022,1.2322166398495165,1.1825348903491442,0.5599760541628294,-0.5734556730891033,0.5979760946443841,0.9999999999999989,0.0,0.0,0.0,NAVIGATE,-1,0
4.69647319284065,0.6039216833166531,1.258578514358233,1.2056846353830248,0.7643803990430407,0.48447785890813255,0.42544542515651657,1.0000000000000078,0.0,0.0,0.0,NAVIGATE,-1,0
4.75691575986279,0.6001161461798922,1.2102914584333904,1.2418396077303757,-0.06296120969460102,-0.7988915478582438,0.598170695399281,1.0000000000000038,0.0,0.0,0.0,NAVIGATE,-1,0
4.809618204929109,0.5923845822923113,1.2543019088951335,1.2138958984924269,-0.1467021857876188,0.8350741679320929,-0.5302165621117857,0.9999999999999917,0.0,0.0,0.0,NAVIGATE,-1,0
4.833090685196784,0.6090078003611117,1.2615005956058043,1.2288225478349666,0.7082003213649619,0.30668623974026027,0.635921264916161,1.0000000000000129,0.0,0.0,0.0,NAVIGATE,-1,0
4.861710471789826,0.586552308956097,1.2552443758244025,1.2454268486163114,-0.7846142154838383,-0.21859770900327893,0.5801685741913071,0.9999999999999877,0.0,0.0,0.0,NAVIGATE,-1,0
4.97042838169544,0.687387729225139,1.2864545450855667,1.2193936527291325,0.9274959420815314,0.28707477257666325,-0.23945636841050705,0.9999999999999993,0.0,0.0,0.0,NAVIGATE,-1,0
5.0636531718332,0.6275047417253973,1.3252571100561328,1.2793874045374674,-0.6423504672013918,0.41622582269401626,0.643538609415812,0.999999999999997,0.0,0.0,0.0,NAVIGATE,-1,0
5.103487543477188,0.6408018459212831,1.328433756285304,1.2419725264405141,0.33380981416566524,0.07974636220100977,-0.93926115946653,1.0000000000000104,0.0,0.0,0.0,NAVIGATE,-1,0
5.117945359662812,0.6507074642595985,1.338957744211017,1.2415815631016212,0.6851393191846531,0.727909927100706,-0.027041659257069424,0.9999999999999702,0.0,0.0,0.0,NAVIGATE,-1,0
5.15880874937841,0.6871137392475231,1.3508663184188043,1.2273483055373786,0.8909264562070439,0.29142404217244555,-0.3483131884873894,1.0000000000000102,0.0,0.0,0.0,NAVIGATE,-1,0
5.183792264358559,0.6742107681916273,1.359388471901557,1.2469713088424417,-0.5164593959716068,0.3411110682193342,0.7854380506767816,1.0000000000000173,0.0,0.0,0.0,NAVIGATE,-1,0
5.240542491406357,0.6194945712286254,1.3534900229003892,1.2608253464944452,-0.964158203577186,-0.10393701149776595,0.24412303479129818,0.9999999999999932,0.0,0.0,0.0,NAVIGATE,-1,0
5.372252528140991,0.739182275939588,1.4066193169864805,1.27495564116843,0.9087212157726924,0.4033807552049718,0.10728335534864439,0.9999999999999984,0.0,0.0,0.0,NAVIGATE,-1,0
5.431827405504643,0.6864808357638056,1.3850125760881018,1.2574950293795202,-0.8846252398319895,-0.36268208772782606,-0.29308682722631646,1.000000000000004,0.0,0.0,0.0,NAVIGATE,-1,0
5.469280813604244,0.7229600623182845,1.3934870084547628,1.2570391737827313,0.9739895087109036,0.2262659874403099,-0.012171271452162128,1.000000000000004,0.0,0.0,0.0,NAVIGATE,-1,0
5.520341672495133,0.6858525608168164,1.4260017853793763,1.2438849377906098,-0.7267308523102313,0.6367847629452111,-0.25761877645322456,1.0000000000000002,0.0,0.0,0.0,NAVIGATE,-1,0
5.556739872010599,0.6905829237808961,1.4390710405727871,1.2775249015671255,0.12996145488102073,0.3590632330002308,0.9242205445415288,1.0000000000000049,0.0,0.0,0.0,NAVIGATE,-1,0
5.593312490423199,0.6993690167172172,1.4048061797983427,1.2868136207778633,0.24023691268695424,-0.9368993050451011,0.25398015274557717,1.0000000000000095,0.0,0.0,0.0,NAVIGATE,-1,0
5.664816142828541,0.7070980262425381,1.4468315682635917,1.229482115971113,0.1080925136733788,0.5877376476800691,-0.8017982701323823,1.0000000000000056,0.0,0.0,0.0,NAVIGATE,-1,0
5.694256028679181,0.7245670754740201,1.4405727682518628,1.252337457146863,0.593380331707442,-0.21259593340416807,0.7763393272550121,0.999999999999994,0.0,0.0,0.0,NAVIGATE,-1,0
5.741545806002156,0.7471047270530693,1.4809765964488748,1.242544195811419,0.47658612188261706,0.8543882099732888,-0.20709045146394056,1.000000000000006,0.0,0.0,0.0,NAVIGATE,-1,0
5.779194187792754,0.7256766222080518,1.4536310716131855,1.2280369822380868,-0.5691640337744515,-0.7263399789076258,-0.38533431938779994,0.9999999999999971,0.0,0.0,0.0,NAVIGATE,-1,0
5.876503559364185,0.7580717116722493,1.4888077759696268,1.3127852650811804,0.33290821779090013,0.36149349017858545,0.8709159403098561,1.0000000000000047,0.0,0.0,0.0,NAVIGATE,-1,0
5.924707214378579,0.766353343625226,1.478039464083426,1.2665353960212185,0.17180506230292653,-0.2233920204388088,-0.9594680952336822,0.9999999999999979,0.0,0.0,0.0,NAVIGATE,-1,0
5.983281144728691,0.7636983109291114,1.533896592109172,1.249104464699061,-0.04532789041549194,0.9536175512189917,-0.2975885554882177,0.9999999999999946,0.0,0.0,0.0,NAVIGATE,-1,0
6.028310875104206,0.7780631098978326,1.50274108777668,1.2782706046230878,0.31900699491045476,-0.6918874279876387,0.6477085179236577,1.0000000000000049,0.0,0.0,0.0,NAVIGATE,-1,0
6.08786979947591,0.8198424097421044,1.4757879819490571,1.3110621532763875,0.7014784146122216,-0.45254520816074845,0.5505732180227036,1.0000000000000033,0.0,0.0,0.0,NAVIGATE,-1,0
6.177377164863485,0.7903074186240544,1.5594322896661517,1.2991088045903654,-0.32997274570825164,0.934496366359423,-0.13354597841488244,0.9999999999999978,0.0,0.0,0.0,NAVIGATE,-1,0
6.235911495198622,0.7916404405986377,1.5148113881600138,1.2612476631789156,0.022773336039741257,-0.762303100602022,-0.6468194168221753,1.000000000000007,0.0,0.0,0.0,NAVIGATE,-1,0
6.2897275288443275,0.8161842407197574,1.5489666169034293,1.2948212793448148,0.4560685442316762,0.634666407566832,0.6238589857240179,0.9999999999999944,0.0,0.0,0.0,NAVIGATE,-1,0
6.326142576647121,0.8097042803063048,1.5798011300904784,1.27656481155837,-0.17794732684534456,0.8467519623764885,-0.5013440565920166,0.9999999999999886,0.0,0.0,0.0,NAVIGATE,-1,0
6.424854031594451,0.9017586018080077,1.546805123917865,1.2900264907751966,0.932559666462424,-0.3342672457843835,0.136374033023921,0.9999999999999972,0.0,0.0,0.0,NAVIGATE,-1,0
6.490458113232961,0.8473517413804617,1.5834328896102488,1.2915083296441896,-0.8293212719192935,0.5583153483377643,0.02258760174646145,1.000000000000005,0.0,0.0,0.0,NAVIGATE,-1,0
6.530539582982617,0.855516676377388,1.5814326964014687,1.2523183145776433,0.20370847296577713,-0.04990319020916793,-0.9777589322777457,1.000000000000009,0.0,0.0,0.0,NAVIGATE,-1,0
6.567332353714406,0.8536589420003363,1.6145165185152661,1.2683094844988498,-0.05049183141422534,0.8991935495962309,0.4346280424972245,1.0000000000000004,0.0,0.0,0.0,NAVIGATE,-1,0
6.601419651064283,0.8646677956381189,1.606925032334024,1.2996642021623988,0.3229605892419665,-0.22270718923010538,0.9198358362565084,1.000000000000001,0.0,0.0,0.0,NAVIGATE,-1,0
6.65572449223716,0.833721196275437,1.58865558893623,1.340377236937908,-0.569868149768917,-0.3364238436796895,0.7497128045343417,1.0000000000000064,0.0,0.0,0.0,NAVIGATE,-1,0
6.765349336772276,0.8779537522880102,1.637627872184753,1.2528397992248381,0.403490250774349,0.4467261363625976,-0.7985182381264719,1.000000000000003,0.0,0.0,0.0,NAVIGATE,-1,0
6.863832386993835,0.9286962819259523,1.6373440052612476,1.337243746327176,0.5152412473393759,-0.0028823936998990376,0.85704034260163,0.9999999999999982,0.0,0.0,0.0,NAVIGATE,-1,0
6.948198016406231,0.8824255444712569,1.685203904264811,1.2854170317012508,-0.5484548361337396,0.56729143534999,-0.6143107683412867,1.0000000000000004,0.0,0.0,0.0,NAVIGATE,-1,0
7.018555306437714,0.8968393413304561,1.617631477277905,1.2986970103072297,0.2048657197107685,-0.9604182730271231,0.18875057012622842,0.9999999999999944,0.0,0.0,0.0,NAVIGATE,-1,0
7.1272547845598355,0.9167915350817886,1.7153575221493498,1.341907039956782,0.18355372165556047,0.8990479674764587,0.39751828063982947,1.0000000000000022,0.0,0.0,0.0,NAVIGATE,-1,0
7.167138887244574,0.8968717646828259,1.681775891262576,1.3500445126113532,-0.49944135778651344,-0.841980353731851,0.2040279737240979,1.000000000000005,0.0,0.0,0.0,NAVIGATE,-1,0
7.299551787455193,0.9451310017749048,1.733937600725168,1.2383154732195378,0.3644602377511319,0.39393223303486674,-0.8437927061041409,0.9999999999999986,0.0,0.0,0.0,NAVIGATE,-1,0
7.417023142337235,0.9477009416800929,1.7471968072855644,1.3550078383000996,0.021877162375190457,0.11287182797636582,0.993368682924765,0.9999999999999996,0.0,0.0,0.0,NAVIGATE,-1,0
7.462668516856388,0.9789002169238245,1.735080493282164,1.323970757666919,0.6835144978521369,-0.2654445084751437,-0.6799611342909957,0.9999999999999835,0.0,0.0,0.0,NAVIGATE,-1,0
7.504385657806905,0.9606202107077793,1.7258115789184054,1.3603059809130214,-0.43818933415710354,-0.22218479388970716,0.8709902552814264,1.0000000000000309,0.0,0.0,0.0,NAVIGATE,-1,0
7.537107044166943,0.960780612792972,1.7234821511554768,1.3276680097323366,0.0049020565152044695,-0.07118976370064697,-0.9974507443408686,0.9999999999999925,0.0,0.0,0.0,NAVIGATE,-1,0
7.581336271850008,0.9568681343965441,1.6941038863756606,1.2948376175207772,-0.08845911632153607,-0.6642273971034077,-0.7422782158172277,0.999999999999981,0.0,0.0,0.0,NAVIGATE,-1,0
7.64900990647516,0.9963674521150404,1.7161111236529583,1.3451884489992436,0.5836736557343927,0.32519662050363973,0.7440243420848025,1.0000000000000309,0.0,0.0,0.0,NAVIGATE,-1,0
7.740954219962703,0.9830974065323107,1.8060492008052396,1.3314478176062592,-0.14432698531734292,0.9781798758491691,-0.14944514643470752,0.9999999999999898,0.0,0.0,0.0,NAVIGATE,-1,0
7.778746347642392,0.9741497916038919,1.7697356302874632,1.3368801005426636,-0.23675869758525023,-0.9608765832279997,0.14374112467141822,0.9999999999999917,0.0,0.0,0.0,NAVIGATE,-1,0
7.827002418496828,0.9871272129972332,1.7394620798796756,1.301613302360874,0.268928264642342,-0.6273521625726173,-0.730826143889168,0.999999999999996,0.0,0.0,0.0,NAVIGATE,-1,0
7.888251106826049,0.9784273939054,1.7904076972353267,1.3344805967744868,-0.14204090453448212,0.8317829939771202,0.5366203801287307,1.0000000000000095,0.0,0.0,0.0,NAVIGATE,-1,0
7.929327186588595,1.0099570524823942,1.7656423421446998,1.343413801457708,0.767591716621005,-0.6029142808610533,0.21747948525912017,0.999999999999977,0.0,0.0,0.0,NAVIGATE,-1,0
7.972015547648444,1.0216610421561174,1.7836132722981322,1.3803239418680868,0.2741728514082401,0.42097962318668586,0.8646417780863301,1.0000000000000098,0.0,0.0,0.0,NAVIGATE,-1,0
8.03483866803774,1.064434707049048,1.7787356476861709,1.3345706160302848,0.6808586492978271,-0.07764059762928253,-0.7282880180780993,1.0000000000000098,0.0,0.0,0.0,NAVIGATE,-1,0
8.090857907627084,1.0145008488612113,1.7563735477841864,1.3225414224322463,-0.8913697964107046,-0.39918606653557365,-0.21473325390026488,1.0,0.0,0.0,0.0,NAVIGATE,-1,0
8.17518001842954,1.0453750271680944,1.8339793821906767,1.3341318473652946,0.36614570025664084,0.9203497596057617,0.13745416027596385,0.9999999999999898,0.0,0.0,0.0,NAVIGATE,-1,0
8.256430903709534,1.0040930866051965,1.7815872361859626,1.3805276529856814,-0.5080798863992507,-0.644819386572448,0.5710190782599461,0.999999999999991,0.0,0.0,0.0,NAVIGATE,-1,0
8.348234944860843,1.079265975272325,1.8249134311524688,1.3505299928956824,0.8188407364685617,0.47194213264639223,-0.32675751212909415,0.9999999999999982,0.0,0.0,0.0,NAVIGATE,-1,0
8.409338723564021,1.102940000651693,1.7720092015506248,1.3698782430589216,0.38743962946004806,-0.86580945932715,0.3166457226356931,0.9999999999999958,0.0,0.0,0.0,NAVIGATE,-1,0
8.498386310090778,1.095335605384873,1.8567998227364975,1.3437593533853518,-0.08539698338185656,0.9521944894081432,-0.2933138414225482,1.0000000000000036,0.0,0.0,0.0,NAVIGATE,-1,0
8.570931829983538,1.030618707232865,1.8461164956098468,1.3127683535370358,-0.8920867649398012,-0.1472637751089695,-0.42719384869152965,0.9999999999999933,0.0,0.0,0.0,NAVIGATE,-1,0
8.698056705973615,1.113696835207236,1.8506020392341749,1.4088861908314771,0.6535159018039539,0.03528454670569899,0.7560899198198149,0.999999999999998,0.0,0.0,0.0,NAVIGATE,-1,0
8.743868472580939,1.087389551825633,1.8131674700064213,1.4111878918321492,-0.5742473021635762,-0.8171387396741198,0.05024257240287459,1.0000000000000062,0.0,0.0,0.0,NAVIGATE,-1,0
8.833421385691326,1.073032331608597,1.8897590945829794,1.3670594710704733,-0.16032108524865712,0.8552667011752931,-0.4927636547934664,0.9999999999999949,0.0,0.0,0.0,NAVIGATE,-1,0
8.889312663834001,1.1117915910027947,1.8524054901523017,1.382101512809269,0.6934759891383293,-0.6683261802552386,0.2691303945563264,0.9999999999999929,0.0,0.0,0.0,NAVIGATE,-1,0
8.943744689813936,1.1266517858691445,1.9038257634025855,1.3722032523721739,0.27300462547228505,0.9446694721456562,-0.18184626162443315,0.9999999999999986,0.0,0.0,0.0,NAVIGATE,-1,0
8.977540353668083,1.1516635760512763,1.9065527293331075,1.349639544697209,0.7400887371254636,0.08068981696264123,-0.667650967660949,1.0000000000000149,0.0,0.0,0.0,NAVIGATE,-1,0
9.100633028324964,1.091304186836879,1.8006414503517922,1.366708571394465,-0.4903572806639243,-0.8604190239308811,0.13866809495232604,0.999999999999998,0.0,0.0,0.0,NAVIGATE,-1,0
9.226044489975884,1.1259749079887715,1.9118334911762342,1.413209172095139,0.2764557616623418,0.8866178526325024,0.3707842974520725,1.000000000000001,0.0,0.0,0.0,NAVIGATE,-1,0
9.263277258943948,1.1600822848480632,1.8998512087067316,1.4221193256083275,0.9160580264268567,-0.3218208798754759,0.2393094513285114,1.000000000000023,0.0,0.0,0.0,NAVIGATE,-1,0
9.34317084425796,1.2093985094198745,1.8405962265997453,1.401149297858922,0.6172738947436082,-0.7416738386954522,-0.26247448611781915,1.000000000000002,0.0,0.0,0.0,NAVIGATE,-1,0
9.413032770994059,1.1734632673851426,1.8990347520435005,1.4143510375603743,-0.514375192806749,0.8364860257076036,0.188969018150923,1.0000000000000029,0.0,0.0,0.0,NAVIGATE,-1,0
9.463288223723909,1.127221618689642,1.880786855507033,1.4217222468911763,-0.92013196944169,-0.36310281860477195,0.14667481696814563,1.000000000000006,0.0,0.0,0.0,NAVIGATE,-1,0
9.485156564193836,1.1423503870317795,1.8671466903748342,1.4296777844924304,0.6918114505735858,-0.6237402948319932,0.3637924703154459,1.0000000000000226,0.0,0.0,0.0,NAVIGATE,-1,0
9.537484225433746,1.1736696712415529,1.9075389847196311,1.4184639927612916,0.5985225302958294,0.7719109432315068,-0.21429950174395138,0.9999999999999911,0.0,0.0,0.0,NAVIGATE,-1,0
9.583048582074714,1.2024810580649703,1.9324505413676187,1.3934554156168242,0.6323229152655788,0.5467334224486563,-0.5488627292935734,0.9999999999999858,0.0,0.0,0.0,NAVIGATE,-1,0
9.643876533152714,1.2097519149785734,1.9174051569382913,1.4519431124381488,0.11953151116794325,-0.2473432716817086,0.9615266630685196,0.9999999999999931,0.0,0.0,0.0,NAVIGATE,-1,0
9.670999844982736,1.2204557714420354,1.9243845267582624,1.4280184411059373,0.39463678073464453,0.25731997123764655,-0.8820704301209006,1.0000000000000089,0.0,0.0,0.0,NAVIGATE,-1,0
9.693452598345383,1.2318976676752604,1.9275341844295342,1.4089583046765792,0.5095988028025262,0.14027935106220296,-0.8488997372174215,1.000000000000004,0.0,0.0,0.0,NAVIGATE,-1,0
9.717443566702999,1.2180499015275235,1.9457899985582177,1.4160668337756765,-0.5772074699661325,0.7609452797635099,0.2963002156951595,1.000000000000034,0.0,0.0,0.0,NAVIGATE,-1,0
9.746967779829477,1.2307298989587094,1.9192360758872846,1.4136614197429218,0.42947791281908926,-0.899394763111175,-0.0814725873455188,1.0000000000000104,0.0,0.0,0.0,NAVIGATE,-1,0
9.844361915362624,1.2584112741146212,1.9431397287475147,1.3233952883000357,0.28422014328050293,0.24543215799779639,-0.9268127998545159,1.000000000000006,0.0,0.0,0.0,NAVIGATE,-1,0
9.983091691958037,1.2916667171470277,1.9401247180301278,1.4580464529192314,0.2397138080124757,-0.021732974645953897,0.9706003132397997,1.0000000000000004,0.0,0.0,0.0,NAVIGATE,-1,0
10.0128395383223,1.2715613109730197,1.9182523902566486,1.4595657565950608,-0.6758608985610973,-0.7352575210202544,0.051072728332180184,0.9999999999999782,0.0,0.0,0.0,NAVIGATE,-1,0
10.107885148642788,1.319463489863761,1.9886078492791999,1.4172673088169256,0.5039914913399777,0.7402283891419792,-0.4450331544561323,0.9999999999999999,0.0,0.0,0.0,NAVIGATE,-1,0
10.163598325718237,1.2705053072118226,1.9881352100344853,1.3906810141634003,-0.8787540977179902,-0.008483437303790113,-0.4771993996594632,0.9999999999999992,0.0,0.0,0.0,NAVIGATE,-1,0
10.224045829199087,1.301548498308666,1.9622889476166192,1.4356497998109927,0.5135562150499414,-0.4275819666573064,0.7439312305402134,1.0000000000000138,0.0,0.0,0.0,NAVIGATE,-1,0
10.244422744516694,1.2881752682919358,1.952618959875561,1.4236971125035993,-0.6562931537127552,-0.4745560154879083,-0.5865798194226861,0.9999999999999726,0.0,0.0,0.0,NAVIGATE,-1,0
10.316148983581536,1.343750466712739,1.9636348684325522,1.4676823424056837,0.7748238182481798,0.1535826874601985,0.6132376446271013,0.9999999999999902,0.0,0.0,0.0,NAVIGATE,-1,0
10.352236337448144,1.3352560871455978,1.9817493777665247,1.4376489080956931,-0.23538382998486201,0.5019628039487372,-0.832242630507232,1.0000000000000089,0.0,0.0,0.0,NAVIGATE,-1,0
10.39323256490657,1.3515548927035614,1.9935230424782249,1.4019218815966512,0.3975684244237277,0.28718897912349284,-0.8714710770709712,0.9999999999999989,0.0,0.0,0.0,NAVIGATE,-1,0
10.414210501500671,1.3367031271790852,2.0083354172078587,1.4016178430777524,-0.7079707509771489,0.7060930260319097,-0.014493251876084186,0.9999999999999954,0.0,0.0,0.0,NAVIGATE,-1,0
10.486203915903825,1.3227456870728533,1.969350916197537,1.4605113933534952,-0.19387106754059363,-0.5415009321826727,0.8180407994812701,0.9999999999999942,0.0,0.0,0.0,NAVIGATE,-1,0
10.554804564888641,1.3872150317625118,1.9678824443268077,1.4371106192896161,0.9397774750487851,-0.021406092981050836,-0.3411159283501611,0.9999999999999877,0.0,0.0,0.0,NAVIGATE,-1,0
10.649414280361452,1.3101118586812306,1.9868649548047843,1.4885476026634272,-0.814960416020276,0.20064018143498177,0.5436754895282778,1.0000000000000082,0.0,0.0,0.0,NAVIGATE,-1,0
10.72221493474281,1.381653246437548,1.9953462867853158,1.4780675204075373,0.982702537006811,0.11650076572255617,-0.14395587986051708,0.9999999999999901,0.0,0.0,0.0,NAVIGATE,-1,0
10.769543607036438,1.4261914591519957,1.9948057870297686,1.4620656864721926,0.9410408227412882,-0.011420133491045134,-0.33810020775713456,0.9999999999999857,0.0,0.0,0.0,NAVIGATE,-1,0
10.828791108964047,1.4040240133821047,1.966240003470827,1.5090003947632302,-0.3741498805633333,-0.4821432571763811,0.7921803749360398,1.0000000000000056,0.0,0.0,0.0,NAVIGATE,-1,0
10.909220855079825,1.3894474265057408,2.0452771598224744,1.5059028003531119,-0.18123377954446163,0.982685637697704,-0.038513044734213304,1.0000000000000064,0.0,0.0,0.0,NAVIGATE,-1,0
10.997766814838748,1.4411128113387734,1.9832264532335877,1.4695601970960066,0.5834866432494256,-0.7007740020869078,-0.4104377360192651,1.0000000000000018,0.0,0.0,0.0,NAVIGATE,-1,0
11.09745159600419,1.4001455461677512,2.016769890010612,1.385099693725527,-0.4109681005672373,0.33649506358803094,-0.8472758066279433,0.9999999999999939,0.0,0.0,0.0,NAVIGATE,-1,0
11.220694685851411,1.3631637440743378,1.9717504782478332,1.4937019868576118,-0.30007201328088984,-0.3652895413332059,0.8812039138803933,0.999999999999997,0.0,0.0,0.0,NAVIGATE,-1,0
11.267065991924065,1.3978883818055214,2.002043055534456,1.498884391961013,0.7488388978472471,0.6532612482202002,0.1117588772522722,0.9999999999999911,0.0,0.0,0.0,NAVIGATE,-1,0
11.2963371949938,1.4136214585141293,2.0138815373529257,1.4772251220133785,0.5374933401652774,0.404441245215167,-0.7399514770894163,1.000000000000015,0.0,0.0,0.0,NAVIGATE,-1,0
11.321670804807187,1.418537879872173,2.0094671795095698,1.4527683431568332,0.19406714614534326,-0.17424906580124536,-0.965388629441252,1.0000000000000318,0.0,0.0,0.0,NAVIGATE,-1,0
11.368869372177407,1.4270427159228547,2.008775272076233,1.4991891767303043,0.1801926737303425,-0.014659500740974853,0.9835220889090024,0.9999999999999959,0.0,0.0,0.0,NAVIGATE,-1,0
11.43212163208393,1.4468343609537653,2.066743582829944,1.5149630195916342,0.3129002040426613,0.9164622867132162,0.24937990966079465,0.9999999999999912,0.0,0.0,0.0,NAVIGATE,-1,0
11.506041986069244,1.404351185500129,2.0437192342963577,1.4590230704381582,-0.5747155304759096,-0.31147508490233855,-0.7567597574626107,0.9999999999999972,0.0,0.0,0.0,NAVIGATE,-1,0
11.568572007292367,1.45450274282685,2.0320705658508627,1.4945073398446969,0.8020396658393445,-0.1862892130474347,0.5674757294567606,1.0000000000000013,0.0,0.0,0.0,NAVIGATE,-1,0
11.585266883174093,1.471099759302901,2.0329287970851193,1.4960952201766025,0.994138356800738,0.051406865216415736,0.09511183809660506,0.9999999999999825,0.0,0.0,0.0,NAVIGATE,-1,0
11.64576268110553,1.5236455401710707,2.010918448779107,1.4757426515975856,0.8685856318106905,-0.363832680262479,-0.33642945915158035,0.9999999999999902,0.0,0.0,0.0,NAVIGATE,-1,0
11.721590608783492,1.491324216384455,2.035023060443228,1.5399623864237026,-0.4262456429494331,0.3178856709165584,0.8469140169418328,0.9999999999999986,0.0,0.0,0.0,NAVIGATE,-1,0
11.772361931290167,1.519597708099749,2.000273408358631,1.5160709960225252,0.5568791656269533,-0.6844346447746885,-0.4705686049055849,1.000000000000007,0.0,0.0,0.0,NAVIGATE,-1,0
11.80971827368503,1.4985238809856427,2.0034517731290906,1.485390576773876,-0.5641298307888906,0.08508233319161258,-0.8212907710383262,0.9999999999999796,0.0,0.0,0.0,NAVIGATE,-1,0
11.84644575974812,1.5190671616645042,2.0312427487447944,1.497822130409337,0.5593435021273409,0.7566805843439794,0.3384809298982945,1.0000000000000193,0.0,0.0,0.0,NAVIGATE,-1,0
11.861729009131949,1.5306990235089424,2.027758409575988,1.4885411346482686,0.7610856534700987,-0.22798418590832248,-0.6072658718039606,1.000000000000056,0.0,0.0,0.0,NAVIGATE,-1,0
11.929280490468885,1.493053007013307,2.074157145872294,1.4570270529873561,-0.5572937225145782,0.6868648233615463,-0.46651947577174663,0.9999999999999946,0.0,0.0,0.0,NAVIGATE,-1,0
12.06122022661712,1.5887378918855257,2.0387297588874,1.5406774984929155,0.7252165849772229,-0.26851188291820566,0.6340049476192503,0.999999999999997,0.0,0.0,0.0,NAVIGATE,-1,0
12.122134288187981,1.597440801377556,2.021482739634931,1.482907933925254,0.14287192919989955,-0.2831369113748209,-0.9483781425485586,1.0000000000000142,0.0,0.0,0.0,NAVIGATE,-1,0
12.221543232451134,1.5151028490584464,2.0640364606500325,1.5188492838606629,-0.8282750906311436,0.4280673266427045,0.3615504641138291,0.9999999999999931,0.0,0.0,0.0,NAVIGATE,-1,0
12.297444950014368,1.5857112325514298,2.091782609812098,1.521232163679932,0.9302606813101368,0.36555364032375287,0.03139428060088264,0.9999999999999973,0.0,0.0,0.0,NAVIGATE,-1,0
12.325807223239426,1.6064100095823193,2.0790252013416843,1.506629845335319,0.7297996485204895,-0.44980204404569457,-0.5148500696238874,1.0000000000000182,0.0,0.0,0.0,NAVIGATE,-1,0
12.357360183546705,1.5769872540728174,2.078849905803026,1.5180254600118017,-0.9324879574838083,-0.005555597222934226,0.36115833714194845,0.9999999999999828,0.0,0.0,0.0,NAVIGATE,-1,0
12.392622482907907,1.6070993590545188,2.0656717171838093,1.505257287294988,0.8539461557300745,-0.37371892525296196,-0.36209132552660667,1.0000000000000082,0.0,0.0,0.0,NAVIGATE,-1,0
12.434049441611185,1.58791678675039,2.0341988391721837,1.5241697111709849,-0.463045632712857,-0.7597197331585716,0.456524554733975,1.0000000000000175,0.0,0.0,0.0,NAVIGATE,-1,0
12.476921466117917,1.6233399428213826,2.0547058775002016,1.5114154225475787,0.826253401339384,0.4783314658909542,-0.29749676555170695,1.0000000000000087,0.0,0.0,0.0,NAVIGATE,-1,0
12.512699209222074,1.6434948083524688,2.0365214688227713,1.4881097241434729,0.5633352968187701,-0.5082603624407305,-0.6514021394881595,1.000000000000013,0.0,0.0,0.0,NAVIGATE,-1,0
12.56008460837205,1.6260283610354487,2.044174995936896,1.531488553005461,-0.3686039925872207,0.16151656947958104,0.9154471554559117,1.0000000000000062,0.0,0.0,0.0,NAVIGATE,-1,0
12.62796818173428,1.690647500342596,2.064716344785049,1.5347442180876492,0.9519112814279214,0.3025967525095259,0.04795954191768603,1.0000000000000064,0.0,0.0,0.0,NAVIGATE,-1,0
12.700439939386818,1.6264182079547573,2.037019263598069,1.5157804275823836,-0.886266519100895,-0.3821775831596664,-0.26167145822771903,1.0000000000000009,0.0,0.0,0.0,NAVIGATE,-1,0
12.768046006135119,1.6793088910376086,2.046368853377568,1.5568382048622156,0.7823363438634106,0.1382951298484444,0.6073090663991918,1.0000000000000122,0.0,0.0,0.0,NAVIGATE,-1,0
12.824508066595742,1.6875527562555976,1.993334761582818,1.574370690859152,0.14600716216756493,-0.939287219809064,0.3105179983497703,1.0000000000000073,0.0,0.0,0.0,NAVIGATE,-1,0
12.876963356326193,1.6963248689950077,2.0345884164361863,1.5431818559974284,0.1672302790526319,0.7864536649278981,-0.5945794031830082,1.0000000000000029,0.0,0.0,0.0,NAVIGATE,-1,0
12.907834281764506,1.6690273928250778,2.0458852211778353,1.552139759479773,-0.8842454763617774,0.3659367052090055,0.2901728197376052,0.999999999999981,0.0,0.0,0.0,NAVIGATE,-1,0
12.950220363006514,1.6562040031144467,2.0700278000277894,1.5845322963649429,-0.30253775142398187,0.5695874245158385,0.7642258009232222,1.0000000000000027,0.0,0.0,0.0,NAVIGATE,-1,0
13.033242446458459,1.6795374194458608,2.028936889213117,1.5162698977004705,0.28105072001619674,-0.49493952820945847,-0.8222197736579777,1.0,0.0,0.0,0.0,NAVIGATE,-1,0
13.11213753435881,1.6726504488555267,2.063593567503084,1.5868100931977738,-0.08729276782139687,0.43927548865577254,0.8941012346218491,1.0000000000000013,0.0,0.0,0.0,NAVIGATE,-1,0
13.257657077265122,1.7168403728290837,2.0884947966610574,1.4504168500612633,0.3036700300935335,0.1711194844393179,-0.9372847138773843,0.9999999999999979,0.0,0.0,0.0,NAVIGATE,-1,0
13.411152787904586,1.7293624659942832,2.0382117082378297,1.5949012484788694,0.08157943380327978,-0.32758627725653267,0.9412927424205145,0.9999999999999953,0.0,0.0,0.0,NAVIGATE,-1,0
13.465598117229398,1.7318177211724002,2.040981018922918,1.5405818548369383,0.04509579074210928,0.05086406344549513,-0.9976869332146051,1.0000000000000036,0.0,0.0,0.0,NAVIGATE,-1,0
13.520278583764023,1.775424603320239,2.008234608518774,1.536573631361115,0.797485554009045,-0.5988685261748427,-0.0733026568689804,0.9999999999999966,0.0,0.0,0.0,NAVIGATE,-1,0
13.62554781135044,1.7532513242496184,2.095405948623591,1.5912647040899222,-0.21063400557791906,0.8280799821890689,0.5195352334461704,1.000000000000007,0.0,0.0,0.0,NAVIGATE,-1,0
13.676586295311667,1.7494564898502056,2.05189091433001,1.5648645550871247,-0.07435241223653179,-0.8525926108353612,-0.5172596627841304,1.0000000000000004,0.0,0.0,0.0,NAVIGATE,-1,0
13.691762287656081,1.7634118696073382,2.0568597234414807,1.5681613801485603,0.9195695042815019,0.32741246823964876,0.2172395047793432,1.0000000000000402,0.0,0.0,0.0,NAVIGATE,-1,0
13.740796965697722,1.7193720481798376,2.0739885654649934,1.555065711008925,-0.8981362412556491,0.34932098481337115,-0.26706954471107597,0.9999999999999951,0.0,0.0,0.0,NAVIGATE,-1,0
13.80485136160233,1.7790506765337553,2.052728999490571,1.545607497272796,0.931686693959205,-0.3318986257568217,-0.147659088850273,0.9999999999999964,0.0,0.0,0.0,NAVIGATE,-1,0
13.811426545220893,1.7848806571189921,2.0503173097127543,1.5437559794065137,0.8866643007165784,-0.36678668121262364,-0.28159181152826923,0.999999999999981,0.0,0.0,0.0,NAVIGATE,-1,0
13.814346633879621,1.785478942305623,2.0485714474799073,1.5460189282955101,0.20488596633619993,-0.597879871773325,0.7749589664795528,1.0000000000001312,0.0,0.0,0.0,NAVIGATE,-1,0
13.839087808274991,1.8005549453397345,2.03811037750414,1.5294235717781093,0.6093487234354117,-0.4228202674859673,-0.6707586411300904,0.9999999999999781,0.0,0.0,0.0,NAVIGATE,-1,0
13.888790234570264,1.7869978899461012,2.0260882224268197,1.5757053739900788,-0.27276445848122904,-0.24188265993090421,0.9311779255406577,1.000000000000005,0.0,0.0,0.0,NAVIGATE,-1,0
13.911776959821808,1.8092565025442813,2.0316314192325793,1.577194223266091,0.9683246462731923,0.24114773831854508,0.06476996004083416,0.9999999999999718,0.0,0.0,0.0,NAVIGATE,-1,0
13.960230432668785,1.835751617031652,1.9993387955025808,1.601748945660504,0.5468155929925913,-0.6664666500166597,0.5067690910816656,1.0000000000000027,0.0,0.0,0.0,NAVIGATE,-1,0
14.017857881266616,1.8489728382136457,2.044087118272688,1.63556772375219,0.22942575983645733,0.7765105667334952,0.5868519067658111,0.9999999999999889,0.0,0.0,0.0,NAVIGATE,-1,0
14.078661061715405,1.815436559445002,2.022541188459789,1.5896534812174679,-0.5515546805465182,-0.35435530927606596,-0.7551289619363503,0.999999999999989,0.0,0.0,0.0,NAVIGATE,-1,0
14.11722965853172,1.8503179738637425,2.0376010891066194,1.5962884628327505,0.9043993636808988,0.3904705353568834,0.1720306716596941,0.9999999999999957,0.0,0.0,0.0,NAVIGATE,-1,0
14.133276862855958,1.8643377018136558,2.0365684840614873,1.5885493594185918,0.8736554770937683,-0.06434797141409115,-0.4822711332010333,1.0000000000000286,0.0,0.0,0.0,NAVIGATE,-1,0
14.155958807106172,1.875397038913336,2.0340497656739465,1.5689071162786217,0.48758329434549147,-0.11104508325017148,-0.865985866259433,0.9999999999999701,0.0,0.0,0.0,NAVIGATE,-1,0
14.196384891599525,1.8862692287338074,2.071126193493803,1.5807983860211843,0.26893996677464577,0.9171412043615728,0.29414844132426077,1.000000000000018,0.0,0.0,0.0,NAVIGATE,-1,0
14.276491347386195,1.9103224247659585,2.003758821032767,1.5447411378311642,0.30026538805070613,-0.8409730751344302,-0.45011663337151864,1.0000000000000056,0.0,0.0,0.0,NAVIGATE,-1,0
14.336204269964753,1.8923370963370354,2.03814572604571,1.590125076045113,-0.3011965861369704,0.5758704067399019,0.7600354538708363,0.9999999999999967,0.0,0.0,0.0,NAVIGATE,-1,0
14.376735625006184,1.8740454470510925,2.0031426313681058,1.5992349427228032,-0.4512962684629069,-0.8636053406510696,0.2247609700780573,1.0000000000000118,0.0,0.0,0.0,NAVIGATE,-1,0
14.419281307174076,1.9043652565278573,2.0039878552798367,1.629069986228102,0.7126412818371938,0.01986626770715587,0.7012472708173918,1.0000000000000058,0.0,0.0,0.0,NAVIGATE,-1,0
14.516051110613379,1.8698412236702977,2.0218443889401803,1.5404492763541207,-0.356764523958284,0.1845258854074637,-0.9157888796329648,0.9999999999999952,0.0,0.0,0.0,NAVIGATE,-1,0
14.633479496019037,1.9049333220412852,1.9712825464583563,1.6404566281625945,0.2988382940782278,-0.4305759830313376,0.8516454642801835,0.9999999999999987,0.0,0.0,0.0,NAVIGATE,-1,0
14.720414570990298,1.9124345115696637,2.046685801722871,1.597844558142088,0.08628496071186706,0.8673513571989302,-0.4901596971601277,0.9999999999999913,0.0,0.0,0.0,NAVIGATE,-1,0
14.751408298506131,1.916666643619549,2.0307577056645187,1.6240932906751824,0.13654801758592292,-0.5139135346084246,0.8469046686845088,0.9999999999999938,0.0,0.0,0.0,NAVIGATE,-1,0
14.785988005368452,1.9300420075516789,2.058651828348886,1.6086409870916853,0.3867980716373343,0.8066616294761582,-0.4468604561924285,0.9999999999999981,0.0,0.0,0.0,NAVIGATE,-1,0
14.887206014716105,1.903994863609531,1.9685476992402149,1.646691974284219,-0.2573370500963321,-0.8901985890592982,0.3759309972382505,0.9999999999999963,0.0,0.0,0.0,NAVIGATE,-1,0
14.998951931297183,1.982668778204973,2.0479047970716806,1.6468186965862168,0.7040428590369049,0.7101565789555024,0.0011340217689824424,1.000000000000007,0.0,0.0,0.0,NAVIGATE,-1,0
15.030152365249325,1.998580422281739,2.0504304778193556,1.620099647233048,0.509981499012888,0.08095018010163352,-0.8563678759773973,0.999999999999979,0.0,0.0,0.0,NAVIGATE,-1,0
15.079025813821355,1.9760920251971787,2.0093057793232236,1.6339432430626055,-0.46013526243020864,-0.8414527662299582,0.2832539187234727,0.9999999999999847,0.0,0.0,0.0,NAVIGATE,-1,0
15.112663976699768,1.9765356484779573,2.0113864949672164,1.6003724250411715,0.01318809479524845,0.061855805012707966,-0.9979979626942704,1.0000000000000064,0.0,0.0,0.0,NAVIGATE,-1,0
15.14248979186673,1.9906133567278506,1.9915184873211638,1.617596235681708,0.4719974348089932,-0.6661346063748271,0.5774799630494312,0.999999999999994,0.0,0.0,0.0,NAVIGATE,-1,0
15.209253633506725,2.03607015617062,1.9507889111830798,1.6446552741450748,0.680859554006529,-0.6100544117533949,0.40529480926629513,0.9999999999999764,0.0,0.0,0.0,NAVIGATE,-1,0
15.250661175481255,1.9955535452342679,1.9578856657604857,1.639898716033061,-0.9784838462827281,0.17138797037918937,-0.11487178144840474,1.0000000000000346,0.0,0.0,0.0,NAVIGATE,-1,0
15.277177584663516,2.010489994637653,1.9790243636322713,1.6341386910828917,0.5632908023375015,0.7971930786890774,-0.21722492327591295,1.0000000000000109,0.0,0.0,0.0,NAVIGATE,-1,0
15.29939609812435,2.025986152480539,1.9754650116703625,1.649658434834927,0.6974435022488109,-0.1601975743419199,0.6985050453259786,0.9999999999999847,0.0,0.0,0.0,NAVIGATE,-1,0
15.366697977140426,1.9698687465697748,2.012535818146227,1.6521353240472114,-0.8338163321912497,0.5508138408291595,0.0368026754749706,0.9999999999999776,0.0,0.0,0.0,NAVIGATE,-1,0
15.435724843372864,2.027948044229789,1.979693092070983,1.6344475093394224,0.8414013387836657,-0.475796278577256,-0.2562453675388928,1.0000000000000264,0.0,0.0,0.0,NAVIGATE,-1,0
15.442529190703095,2.032973384919405,1.98347034703424,1.6318441579443483,0.7385485257768676,0.5551237730730053,-0.38260119137475884,0.9999999999996894,0.0,0.0,0.0,NAVIGATE,-1,0
15.45258851730709,2.0349980552927107,1.9841504326825872,1.6220141912548676,0.20127295325132463,0.06760747265895246,-0.9771992774920369,1.0000000000004,0.0,0.0,0.0,NAVIGATE,-1,0
15.516782353136048,2.0794764441102624,1.9379661810906035,1.6251022960973203,0.6928763212726997,-0.7194499439952486,0.04810594043142798,0.9999999999999739,0.0,0.0,0.0,NAVIGATE,-1,0
15.582583790169672,2.0732452338820733,2.0030209363781246,1.6174289689660881,-0.09469717545841869,0.9886525009215031,-0.11661336708058734,1.0000000000000084,0.0,0.0,0.0,NAVIGATE,-1,0
15.64506848831034,2.075631340711132,1.941771769948398,1.6295608941057484,0.03818705859292495,-0.9802266515209799,0.19415833797177653,0.9999999999999872,0.0,0.0,0.0,NAVIGATE,-1,0
15.65410785226592,2.082673213932566,1.9365430717289756,1.627373924242006,0.7790230879117352,-0.5784365188874694,-0.24193846762774202,1.0000000000001243,0.0,0.0,0.0,NAVIGATE,-1,0
15.785401709086623,2.1091478110305504,2.0631563316735066,1.6048738141628855,0.20164383725994484,0.9643502217886437,-0.17137214660276917,0.9999999999999812,0.0,0.0,0.0,NAVIGATE,-1,0
15.874224458511518,2.080082768500998,1.9828475567196076,1.6292706332907438,-0.32722520657985715,-0.9041464655606527,0.2746685875614224,1.0000000000000187,0.0,0.0,0.0,NAVIGATE,-1,0
15.929620037542607,2.0848115956095237,1.9378436427620092,1.661223036938421,0.08536470222419475,-0.8124098483083211,0.5768042180720805,0.9999999999999595,0.0,0.0,0.0,NAVIGATE,-1,0
15.982833514876162,2.100865180097085,1.9502473463561387,1.7104175969240387,0.3016826806286963,0.23309327290115,0.924475573683221,1.000000000000003,0.0,0.0,0.0,NAVIGATE,-1,0
16.08966162297634,2.082074630746975,1.9352366918484696,1.606331862134702,-0.17589518043780322,-0.1405122188777595,-0.9743291034577763,1.0000000000000164,0.0,0.0,0.0,NAVIGATE,-1,0
16.141300519429567,2.101966486534087,1.9689478041675859,1.6400134684868284,0.3852107065287355,0.6528240267421462,0.652252636394627,0.9999999999999698,0.0,0.0,0.0,NAVIGATE,-1,0
16.16849671598604,2.1219759968985468,1.9527275612493984,1.648740227437774,0.7357466446791286,-0.5964158585376214,0.3208815958078595,0.9999999999999812,0.0,0.0,0.0,NAVIGATE,-1,0
16.246961826902417,2.190590135082654,1.9812261143645753,1.6739732641696683,0.8744541030118814,0.36320031645082534,0.32158288489244946,1.000000000000022,0.0,0.0,0.0,NAVIGATE,-1,0
16.31861227208559,2.15675171775131,1.9183255133083985,1.6682932822833776,-0.4722708595157605,-0.8778815106503781,-0.0792735044669977,1.000000000000012,0.0,0.0,0.0,NAVIGATE,-1,0
16.34914643648785,2.156161523460737,1.9439385833515563,1.6516813134233141,-0.019328981228946978,0.8388331740711882,-0.5440453074535361,0.9999999999999529,0.0,0.0,0.0,NAVIGATE,-1,0
16.36830090472966,2.1497646299042072,1.9428708448492429,1.669704446917344,-0.3339635157590061,-0.05574357318793688,0.9409362487384346,0.9999999999999161,0.0,0.0,0.0,NAVIGATE,-1,0
16.419360112415358,2.1789073736786766,1.9534115557699137,1.7102832170819684,0.5707637289215752,0.20644094177010852,0.7947395191561457,0.9999999999999662,0.0,0.0,0.0,NAVIGATE,-1,0
16.52496329203548,2.237436641815427,1.9152102136507692,1.631118744131331,0.5542377449930299,-0.3617442415707866,-0.7496409978886016,1.0000000000000004,0.0,0.0,0.0,NAVIGATE,-1,0
16.58221854160223,2.194771985832984,1.9325608239395395,1.6651311985481771,-0.7451658372862802,0.30303964125668903,0.5940495356184371,1.000000000000013,0.0,0.0,0.0,NAVIGATE,-1,0
16.614898296783416,2.215416188017127,1.9140543381317554,1.6478311032325845,0.6317122655811305,-0.5662981777305055,-0.5293826474426263,0.9999999999999499,0.0,0.0,0.0,NAVIGATE,-1,0
16.676836697076343,2.169001045327688,1.9351701694866428,1.682989624620123,-0.7493758713484103,0.3409166406465711,0.5676368976476976,1.0000000000000175,0.0,0.0,0.0,NAVIGATE,-1,0
16.75507717531409,2.2440191065665718,1.9384516406123151,1.6610102053811715,0.958813940412405,0.04194083675844998,-0.28092133041625517,1.0000000000000002,0.0,0.0,0.0,NAVIGATE,-1,0
16.796919190720036,2.2587028587877716,1.9324226455992295,1.699724452023333,0.35093319666223766,-0.1440894984286212,0.9252481331637415,0.9999999999999886,0.0,0.0,0.0,NAVIGATE,-1,0
16.890950678206575,2.241417611282095,1.8496880329227854,1.6585161431175095,-0.18382403562584299,-0.8798607241886673,-0.43823946645236783,1.0000000000000167,0.0,0.0,0.0,NAVIGATE,-1,0
16.961735451564845,2.2330574370674077,1.895017751252647,1.6047964236225523,-0.11810695744370238,0.6403879842975551,-0.7589163169748471,0.9999999999999803,0.0,0.0,0.0,NAVIGATE,-1,0
17.0610413585912,2.2499897229008288,1.946369990544892,1.688090531376069,0.1705063307958842,0.5171116284010799,0.8387628716931279,0.9999999999999973,0.0,0.0,0.0,NAVIGATE,-1,0
17.166415077186684,2.2748864809940614,1.8490937333744306,1.6561358478696833,0.23627104011397893,-0.9231548289938637,-0.30325098072182216,0.999999999999989,0.0,0.0,0.0,NAVIGATE,-1,0
17.192004464471417,2.2720225621593224,1.865715094020149,1.6753801997891704,-0.11191822621121324,0.6495411734862191,0.7520442637158835,1.000000000000042,0.0,0.0,0.0,NAVIGATE,-1,0
17.24186518458618,2.2932143098923565,1.9009458975225888,1.7035899804149528,0.4250188862947997,0.7065843297358858,0.5657716246546708,0.9999999999999842,0.0,0.0,0.0,NAVIGATE,-1,0
17.290412599117502,2.270895240493307,1.860529446303346,1.6885826132348363,-0.45973754966189573,-0.8325150084597828,-0.30912804162690233,1.0,0.0,0.0,0.0,NAVIGATE,-1,0
17.309615848708432,2.275088809131465,1.878997922728272,1.6917597433030804,0.21837807285173594,0.9617370402584802,0.16544752247269295,0.9999999999999659,0.0,0.0,0.0,NAVIGATE,-1,0
17.35508862653852,2.257934652051872,1.8380345943647263,1.7015328772862812,-0.3772401401051511,-0.900831889281263,0.21492273948423887,1.0000000000000069,0.0,0.0,0.0,NAVIGATE,-1,0
17.406530418008316,2.2997091982002447,1.84865820561599,1.673456479944361,0.8120740929658548,0.20651713223287493,-0.5457896496160279,0.9999999999999964,0.0,0.0,0.0,NAVIGATE,-1,0
17.430169716420377,2.289523933189069,1.8506103763693456,1.6522134614343602,-0.4308615608481476,0.08258158593910084,-0.8986315134954574,0.9999999999999277,0.0,0.0,0.0,NAVIGATE,-1,0
17.491778059744956,2.343439241234875,1.8763808921856988,1.6372265324599389,0.875129976499397,0.41829587399523405,-0.24326135334403948,1.0000000000000226,0.0,0.0,0.0,NAVIGATE,-1,0
17.580018379933055,2.365984337156079,1.7942769992991847,1.6604003005972492,0.25549653347977097,-0.9304577851881759,0.2626210794329797,1.0000000000000044,0.0,0.0,0.0,NAVIGATE,-1,0
17.634357733207175,2.334897818136223,1.836234553055259,1.67543217780151,-0.5720811372751777,0.7721393654505898,0.2766296670560489,1.0000000000000202,0.0,0.0,0.0,NAVIGATE,-1,0
17.651547820966528,2.351632249443056,1.8334762329669054,1.672630464700339,0.9734930700239111,-0.1604599189351356,-0.16298422325660752,0.9999999999999046,0.0,0.0,0.0,NAVIGATE,-1,0
17.726088032991132,2.3654511881456664,1.7907917592506057,1.732156222531458,0.1853890447487452,-0.5726368701796832,0.7985724243911501,0.9999999999999973,0.0,0.0,0.0,NAVIGATE,-1,0
17.77915493909103,2.356065882227548,1.8106006187850305,1.683827952959872,-0.17685798189272306,0.3732808446969804,-0.9107044884171214,0.9999999999999744,0.0,0.0,0.0,NAVIGATE,-1,0
17.833120771294578,2.3902282257271787,1.8433826599229242,1.6579323334293754,0.6330365363546528,0.6074591977799245,-0.47985213000743643,0.9999999999999994,0.0,0.0,0.0,NAVIGATE,-1,0
17.968576190407212,2.301558216151716,1.7458902088979773,1.6892536035507288,-0.6546065868485575,-0.7197382848439555,0.23122936185601398,0.9999999999999882,0.0,0.0,0.0,NAVIGATE,-1,0
18.074094555811904,2.383806082411454,1.811416311539271,1.6805505117989064,0.7794649390586667,0.6209923968210025,-0.08247940269396503,0.9999999999999888,0.0,0.0,0.0,NAVIGATE,-1,0
18.0889313124968,2.3829841310647555,1.8064240987208335,1.6666030548233173,-0.05539966477546957,-0.3364760186112161,-0.940061043785061,0.999999999999974,0.0,0.0,0.0,NAVIGATE,-1,0
18.147222393074784,2.4356075968082203,1.812394350276798,1.6909541743962202,0.9027704619931205,0.10242135669413975,0.41775035445303005,0.9999999999999863,0.0,0.0,0.0,NAVIGATE,-1,0
18.16159293808313,2.4213355644204144,1.8132858245095846,1.689530471811215,-0.9931448236318977,0.062034824167696206,-0.09907088312785714,1.0000000000000417,0.0,0.0,0.0,NAVIGATE,-1,0
18.22487169957223,2.4278719739552623,1.791558297166801,1.748601543932483,0.1032954719882385,-0.34336208281392877,0.9335055037611909,1.0000000000000135,0.0,0.0,0.0,NAVIGATE,-1,0
18.301807515633982,2.46261287384459,1.792877546608568,1.6799688312593117,0.45155691676088944,0.01714740298209355,-0.8920775288596856,1.000000000000017,0.0,0.0,0.0,NAVIGATE,-1,0
18.360171995177197,2.4345872419987153,1.8324300448025255,1.6474638113607354,-0.48018301654045575,0.6776809885655105,-0.5569315472865402,0.9999999999999994,0.0,0.0,0.0,NAVIGATE,-1,0
18.4821767045283,2.4794620430234473,1.7486607038929243,1.7239758944614367,0.36781203990734607,-0.6866074379844752,0.6271240143732189,0.9999999999999947,0.0,0.0,0.0,NAVIGATE,-1,0
18.54966795808558,2.5366867929403103,1.777499133481591,1.7027923564532366,0.8478839390395573,0.42729136100860965,-0.31387086313668855,0.9999999999999978,0.0,0.0,0.0,NAVIGATE,-1,0
18.619342628037067,2.483871336072204,1.7384900771637968,1.6794818293494342,-0.7580295235683081,-0.5598742892496564,-0.33456243309128403,0.999999999999982,0.0,0.0,0.0,NAVIGATE,-1,0
18.656555808073097,2.506981877823594,1.7210414420066074,1.7028542224554615,0.6210310897648137,-0.46888320590434746,0.6280676116203437,1.0000000000000469,0.0,0.0,0.0,NAVIGATE,-1,0
18.74356090891363,2.4250297648353834,1.7459153317588254,1.6875235878425954,-0.9419230849282877,0.2858900169291037,-0.1762038600583314,1.0000000000000007,0.0,0.0,0.0,NAVIGATE,-1,0
18.84148147858759,2.5120616297107103,1.7174455579573704,1.722213131530711,0.8888006387739751,-0.29074354751253056,0.3542620697941126,1.0000000000000029,0.0,0.0,0.0,NAVIGATE,-1,0
18.878067996183816,2.4841883909154454,1.7406365267575348,1.7270952207342205,-0.7618445434702803,0.6338665258088388,0.1334395707563321,1.0000000000000207,0.0,0.0,0.0,NAVIGATE,-1,0
18.898383440785413,2.496235130782195,1.7242990301252168,1.7262708714560393,0.5929843083917896,-0.8041909469721418,-0.04057746676715212,1.0000000000000393,0.0,0.0,0.0,NAVIGATE,-1,0
18.931161206654618,2.489135678873069,1.7546164561857986,1.7365096895044139,-0.2165935267661338,0.9249387582289349,0.3123708336080897,1.0000000000000444,0.0,0.0,0.0,NAVIGATE,-1,0
18.980956372127395,2.511464848088895,1.7111103064215063,1.7271191815693077,0.44842042402757865,-0.8737022831679847,-0.1885827237634165,1.000000000000026,0.0,0.0,0.0,NAVIGATE,-1,0
18.998487154489254,2.526307948144327,1.7021149348266014,1.7246505785569084,0.8466878288173474,-0.5131186623179751,-0.14081533621511497,0.9999999999998989,0.0,0.0,0.0,NAVIGATE,-1,0
19.01210507681462,2.526902620889467,1.6923741613742502,1.7341485523058673,0.04366839015025944,-0.7152907190700348,0.6974612956388273,1.0000000000001172,0.0,0.0,0.0,NAVIGATE,-1,0
19.057838718718276,2.496034181883495,1.6739330632187084,1.7624086190772668,-0.6749613134025267,-0.40322828858437626,0.6179273199132748,0.9999999999999757,0.0,0.0,0.0,NAVIGATE,-1,0
19.110847225403994,2.5396025144085845,1.6735616311983557,1.7322164972524061,0.8219120901368205,-0.007007026675075189,-0.5695712577580593,0.9999999999999999,0.0,0.0,0.0,NAVIGATE,-1,0
19.171999410350377,2.534226521573665,1.646875088333546,1.7869752121266635,-0.08791170486603289,-0.4363955742253167,0.8954498506025319,0.9999999999999964,0.0,0.0,0.0,NAVIGATE,-1,0
19.289556985540003,2.564014606336834,1.6864127708602354,1.6803486434346824,0.2533914527848962,0.3363261147817448,-0.9070157199141609,1.0000000000000135,0.0,0.0,0.0,NAVIGATE,-1,0
19.339632232179884,2.5555779446200484,1.6479429276720414,1.7112747526338266,-0.16847968373392402,-0.7682407131182342,0.6175927484002377,1.0000000000000275,0.0,0.0,0.0,NAVIGATE,-1,0
19.380076984191067,2.515600782278928,1.6425861668112807,1.7082898624384693,-0.988438804868101,-0.13244637670864207,-0.07380166886749553,0.9999999999999774,0.0,0.0,0.0,NAVIGATE,-1,0
19.506349901202178,2.633775273454601,1.6802174973067387,1.7320284843657714,0.935865694504191,0.29801584841939543,0.18799456359445135,1.000000000000006,0.0,0.0,0.0,NAVIGATE,-1,0
19.56779174777803,2.6271830121817303,1.6267254568471738,1.7025285825111316,-0.10729269447871041,-0.8706125131432385,-0.4801272015518052,1.0000000000000278,0.0,0.0,0.0,NAVIGATE,-1,0
19.654952255466753,2.5416143524507686,1.6385552794582725,1.6909090356442122,-0.9817365914911218,0.13572457211179545,-0.13331206041635796,0.9999999999999951,0.0,0.0,0.0,NAVIGATE,-1,0
19.74168467145544,2.6232125104338686,1.6598526070936968,1.7111741888039942,0.9408034706855389,0.24555210866260002,0.23365143157576648,1.000000000000005,0.0,0.0,0.0,NAVIGATE,-1,0
19.781497558432292,2.596119440668956,1.6405486521167936,1.733046291181103,-0.6805100514480694,-0.48486699766654867,0.5493724278228441,0.9999999999999966,0.0,0.0,0.0,NAVIGATE,-1,0
19.830085610739562,2.642439521960186,1.6527487258170692,1.7411953462119503,0.9533224546294385,0.2510920508425108,0.16771726059963604,1.000000000000021,0.0,0.0,0.0,NAVIGATE,-1,0
19.920260556139954,2.553853879124186,1.6438044639006788,1.7269088196898348,-0.9823753420938038,-0.09918788280576592,-0.15843121898971937,0.9999999999999885,0.0,0.0,0.0,NAVIGATE,-1,0
19.945650270826718,2.5660268151204186,1.6300135232317603,1.7094083283660653,0.47944359148622784,-0.5431703679643197,-0.6892748319418098,1.0000000000000588,0.0,0.0,0.0,NAVIGATE,-1,0
20.01087784269738,2.622998747796243,1.607437392180619,1.7317500679152886,0.8734332896645804,-0.3461133137978382,0.34251987171198817,1.0000000000000042,0.0,0.0,0.0,NAVIGATE,-1,0
20.073768416114138,2.606053451061433,1.569270257855768,1.778775071909833,-0.2694409641094916,-0.6068816398274474,0.7477273848804389,1.000000000000022,0.0,0.0,0.0,NAVIGATE,-1,0
20.12944930099071,2.635613517733689,1.5834887897964998,1.7337817752044293,0.5308835651190126,0.2553575068400916,-0.8080564237644555,1.0000000000000309,0.0,0.0,0.0,NAVIGATE,-1,0
20.192902028598393,2.6839392532609723,1.5775812647558414,1.7744754242727534,0.7616021777042147,-0.0931011993240642,0.6413222977572548,1.000000000000013,0.0,0.0,0.0,NAVIGATE,-1,0
