time,x,y,z,velocity_x,velocity_y,velocity_z,speed,roll,pitch,yaw,state,target_waypoint,obstacle_avoiding
0.0,1.5241476236129299e-16,1.1164029556871343e-17,0.9714285714285713,0.0,0.0,0.0,0.0,0.0,0.0,0.0,NAVIGATE,-1,0
0.023003761232325563,0.008008008008008159,0.02129060262402148,0.974857139421704,0.3481173329496621,0.9255270218203833,0.1490438002075422,0.9999999999999999,0.0,0.0,0.0,NAVIGATE,-1,0
0.04588807834086818,0.016016016016016165,0.042453205633068876,0.9782788365370949,0.34993432270778363,0.9247644536942502,0.14952148666536175,1.0,0.0,0.0,0.0,NAVIGATE,-1,0
0.068653283646166,0.02402402402402417,0.06348806579668075,0.9816936627747437,0.35176524439884643,0.9239916742027678,0.15000199611000595,1.0,0.0,0.0,0.0,NAVIGATE,-1,0
0.0912997103672868,0.03203203203203217,0.08439543988439566,0.985101618134651,0.3536102232207552,0.9232085196123241,0.15048534596095786,1.0000000000000002,0.0,0.0,0.0,NAVIGATE,-1,0
0.11382769263479778,0.040040040040040185,0.1051755846657522,0.9885027026168167,0.3554693852701078,0.922414823245174,0.15097155358962677,0.9999999999999998,0.0,0.0,0.0,NAVIGATE,-1,0
0.1362375655039436,0.048048048048048186,0.1258287569102889,0.9918969162212405,0.3573428575328299,0.921610415424188,0.15146063631164186,1.0,0.0,0.0,0.0,NAVIGATE,-1,0
0.15794351824468023,0.056056056056056194,0.14572291839883092,0.9952499045592138,0.3689314218849736,0.9165302129864885,0.1544732165421397,1.0000000000000004,0.0,0.0,0.0,NAVIGATE,-1,0
0.18070635104199834,0.0640640640640642,0.16675521086705714,0.9986647307968628,0.351801907930875,0.9239751772329591,0.15001763040895877,1.0000000000000004,0.0,0.0,0.0,NAVIGATE,-1,0
0.2021281223606724,0.07207207207207221,0.18634179746242766,1.0020008542531065,0.37382566963671965,0.9143308601327588,0.15573518205450496,1.000000000000001,0.0,0.0,0.0,NAVIGATE,-1,0
0.22401222730458667,0.0800800800800802,0.20642845758858733,1.0053641772997493,0.3659280573060373,0.9178652806518164,0.15368794178525808,0.9999999999999984,0.0,0.0,0.0,NAVIGATE,-1,0
0.24653131674805268,0.08808808808808824,0.22719901701452494,1.0087649210772334,0.35560976069268146,0.9223534316554821,0.15101604290091997,1.0000000000000013,0.0,0.0,0.0,NAVIGATE,-1,0
0.26823962288348074,0.09609609609609623,0.24709574619845254,1.0121179094152069,0.3688914260767165,0.9165491337647957,0.1544564701205033,0.9999999999999984,0.0,0.0,0.0,NAVIGATE,-1,0
0.2898321920504079,0.10410410410410423,0.2668673002323303,1.0154640268754382,0.3708686977496722,0.9156647308168129,0.1549661568460581,1.0000000000000007,0.0,0.0,0.0,NAVIGATE,-1,0
0.31061540728913417,0.11211211211211224,0.2857601181055276,1.0187617952440629,0.38531131569509675,0.9090421119246976,0.1586746001879311,1.0000000000000002,0.0,0.0,0.0,NAVIGATE,-1,0
0.3319731152718366,0.12012012012012024,0.305277320620684,1.0220938072489096,0.37494697532589555,0.9138247667288729,0.15600981189298854,1.000000000000001,0.0,0.0,0.0,NAVIGATE,-1,0
0.35392164465636006,0.12812812812812827,0.32543347912905,1.0254611539896825,0.36485396664683595,0.9183375412194441,0.153420153203854,0.9999999999999993,0.0,0.0,0.0,NAVIGATE,-1,0
0.37505470609013664,0.13613613613613626,0.34470690025811385,1.028779787938947,0.37893269903663573,0.9120032698272234,0.1570351725737408,1.0000000000000004,0.0,0.0,0.0,NAVIGATE,-1,0
0.3960737560087736,0.14414414414414423,0.3638564300848206,1.03209155101047,0.3809881055045931,0.9110559183613455,0.15756007452013718,1.0000000000000022,0.0,0.0,0.0,NAVIGATE,-1,0
0.4162881909262982,0.15215215215215225,0.3821279450088935,1.0353545142584848,0.3961529491514796,0.9038845260142637,0.16141748514503385,0.999999999999996,0.0,0.0,0.0,NAVIGATE,-1,0
0.4377748634252066,0.16016016016016027,0.4017848429093175,1.0386944645202902,0.3726965172673832,0.914841416297596,0.15544288032384393,1.0000000000000004,0.0,0.0,0.0,NAVIGATE,-1,0
0.4578296195795164,0.1681681681681683,0.4198813382915509,1.0419474488475369,0.39930717413819516,0.9023542965564525,0.1622051299061825,1.0000000000000013,0.0,0.0,0.0,NAVIGATE,-1,0
0.4790234989868628,0.17617617617617626,0.43922077175884877,1.0452698945191439,0.3778453134555518,0.9125008732754364,0.1567643944626459,0.9999999999999991,0.0,0.0,0.0,NAVIGATE,-1,0
0.4994777398814181,0.1841841841841843,0.45775469661684887,1.0485473032019577,0.3915084431287648,0.906116484769359,0.16023125471677624,1.0000000000000009,0.0,0.0,0.0,NAVIGATE,-1,0
0.5198200768492784,0.19219219219219227,0.4761662707897231,1.0518178410070302,0.39366214514389986,0.9050864805731714,0.16077493014887276,1.0000000000000007,0.0,0.0,0.0,NAVIGATE,-1,0
0.5394398543703748,0.20020020020020032,0.4937844833936192,1.0550436838991928,0.4081599803768095,0.8979822826712448,0.16441791394902053,1.0000000000000022,0.0,0.0,0.0,NAVIGATE,-1,0
0.5601735774455221,0.20820820820820832,0.5126233941582492,1.0583383039839496,0.38623106805197344,0.9086120566166653,0.15890151869086708,0.9999999999999991,0.0,0.0,0.0,NAVIGATE,-1,0
0.5801823401785022,0.21621621621621637,0.530669456892978,1.0615882291557968,0.40022504713940027,0.901907977797333,0.16242509420586954,0.9999999999999976,0.0,0.0,0.0,NAVIGATE,-1,0
0.6000806282005654,0.2242242242242243,0.5485941960207351,1.0648312834499019,0.402447084851153,0.900818156209331,0.16298157361624308,0.9999999999999983,0.0,0.0,0.0,NAVIGATE,-1,0
0.6198688020016501,0.23223223223223233,0.5663978683110595,1.0680674668662655,0.4046865612009671,0.8997127511255505,0.16354128728070308,1.0,0.0,0.0,0.0,NAVIGATE,-1,0
0.6395472233841155,0.24024024024024038,0.5840807305334897,1.0712967794048875,0.40694361871646995,0.8985915017648014,0.16410424778785937,0.999999999999998,0.0,0.0,0.0,NAVIGATE,-1,0
0.6591162554822732,0.24824824824824843,0.6016430394575643,1.0745192210657677,0.4092184001661472,0.8974541426465312,0.16467046733412696,1.0000000000000004,0.0,0.0,0.0,NAVIGATE,-1,0
0.6785762627822204,0.25625625625625637,0.6190850518528215,1.077734791848906,0.4115110485097121,0.8963004035103582,0.16523995770273922,0.9999999999999982,0.0,0.0,0.0,NAVIGATE,-1,0
0.6979276111419808,0.2642642642642643,0.6364070244888,1.0809434917543026,0.41382170684601843,0.8951300092348221,0.16581273024203674,1.0000000000000016,0.0,0.0,0.0,NAVIGATE,-1,0
0.7171706678119542,0.2722722722722723,0.6536092141350386,1.0841453207819574,0.4161505183583221,0.8939426797552703,0.16638879584296232,1.0000000000000024,0.0,0.0,0.0,NAVIGATE,-1,0
0.7357694911440535,0.2802802802802804,0.6700955303077614,1.087305924543162,0.43056530324621245,0.8864171608248642,0.1699356838209118,0.9999999999999984,0.0,0.0,0.0,NAVIGATE,-1,0
0.754749375135321,0.2882882882882884,0.6870059947441636,1.0904908886890867,0.42192080898347023,0.8909677448072176,0.16780735579785994,0.9999999999999973,0.0,0.0,0.0,NAVIGATE,-1,0
0.7742562010172339,0.2962962962962964,0.7044996528306999,1.0937095825984715,0.41052337558583424,0.8967967516825393,0.16500346744619387,1.0000000000000044,0.0,0.0,0.0,NAVIGATE,-1,0
0.7930697920130236,0.3043043043043044,0.7212252782133641,1.0968839281151592,0.4256501594937458,0.8890182308314886,0.16872618934886488,0.9999999999999951,0.0,0.0,0.0,NAVIGATE,-1,0
0.8117769491946075,0.3123123123123124,0.7378324044539812,1.1000514027541053,0.4280718834121634,0.8877418455095819,0.16931886593994416,0.999999999999992,0.0,0.0,0.0,NAVIGATE,-1,0
0.8303780486139327,0.32032032032032043,0.7543212883220896,1.10321200651531,0.43051261796323226,0.886446736098704,0.16991488997263252,1.0000000000000064,0.0,0.0,0.0,NAVIGATE,-1,0
0.8488734678674682,0.32832832832832837,0.7706921865872276,1.1063657393987725,0.43297250515027774,0.885132585572975,0.17051426843755896,1.0000000000000016,0.0,0.0,0.0,NAVIGATE,-1,0
0.8672635861192668,0.3363363363363364,0.7869453560189343,1.1095126014044934,0.43545168651783134,0.8837990712820535,0.17111700765780158,1.000000000000002,0.0,0.0,0.0,NAVIGATE,-1,0
0.8855487841243684,0.34434434434434436,0.803081053386748,1.112652592532472,0.4379503030688359,0.8824458648635739,0.17172311325819445,0.9999999999999964,0.0,0.0,0.0,NAVIGATE,-1,0
0.9032103047876862,0.3523523523523524,0.818514742836128,1.1157513583940009,0.45341554448594934,0.8738596038015698,0.1754529477161568,1.0000000000000073,0.0,0.0,0.0,NAVIGATE,-1,0
0.9212406497200485,0.3603603603603604,0.8343643872666391,1.1188744846402505,0.4441405884384702,0.8790538666879765,0.1732150027060227,1.0000000000000002,0.0,0.0,0.0,NAVIGATE,-1,0
0.9391631098121052,0.3683683683683684,0.8500926136584059,1.12199045608819,0.4468141073756491,0.8775707303004506,0.17385846763974205,1.0000000000000018,0.0,0.0,0.0,NAVIGATE,-1,0
0.9576502801548905,0.37637637637637644,0.8664542576098444,1.1251438482669711,0.4331656959678087,0.8850269483141113,0.17057192205792626,1.0,0.0,0.0,0.0,NAVIGATE,-1,0
0.9754166456187652,0.3843843843843845,0.882006446201272,1.1282494850062417,0.4507397995550173,0.8753725472466904,0.17480428090851893,1.0000000000000004,0.0,0.0,0.0,NAVIGATE,-1,0
0.9930804101314681,0.3923923923923925,0.8974427033460376,1.1313482508677704,0.4533579465605438,0.8738939614862168,0.17543065971583838,1.0000000000000002,0.0,0.0,0.0,NAVIGATE,-1,0
1.0106419662696617,0.4004004004004004,0.9127632858136803,1.1344401458515572,0.45599649285018456,0.8723932177241849,0.1760604219498762,0.9999999999999969,0.0,0.0,0.0,NAVIGATE,-1,0
1.0281017084009092,0.4084084084084085,0.9279684503737388,1.1375251699576021,0.45865557164651527,0.8708699387287068,0.17669356642580178,1.000000000000001,0.0,0.0,0.0,NAVIGATE,-1,0
1.0454600327102883,0.41641641641641647,0.9430584537957512,1.1406033231859054,0.4613353147043737,0.8693237407633236,0.1773300909374123,0.9999999999999964,0.0,0.0,0.0,NAVIGATE,-1,0
1.0627173372273755,0.4244244244244244,0.9580335528492561,1.1436746055364673,0.4640358521853094,0.8677542335002226,0.1779699922152304,0.9999999999999971,0.0,0.0,0.0,NAVIGATE,-1,0
1.0793747858162939,0.43243243243243246,0.9723220501566417,1.1467046626205784,0.48074637392760733,0.8577842657663266,0.18190403337800926,1.0000000000000033,0.0,0.0,0.0,NAVIGATE,-1,0
1.096934101959304,0.4404404404404405,0.9876400649288989,1.1497965576043654,0.4560546631080407,0.8723582767974047,0.17608288150890422,1.0000000000000024,0.0,0.0,0.0,NAVIGATE,-1,0
1.1138907541344956,0.44844844844844856,1.0022719914941136,1.1528472273217019,0.47226350610199763,0.8629018519718143,0.17990990708647966,1.000000000000002,0.0,0.0,0.0,NAVIGATE,-1,0
1.130747997633346,0.45645645645645644,1.016790040768975,1.1558910261612962,0.4750484863408382,0.8612350694140053,0.18056325993048217,0.9999999999999954,0.0,0.0,0.0,NAVIGATE,-1,0
1.1475062401256904,0.46446446446446443,1.0311944695230217,1.1589279541231492,0.4778548831517582,0.8595429240642171,0.18121995568690016,1.0000000000000033,0.0,0.0,0.0,NAVIGATE,-1,0
1.1641658912955897,0.4724724724724726,1.045485534525793,1.1619580112072605,0.4806828142042399,0.8578249842705193,0.18187998375296213,1.000000000000001,0.0,0.0,0.0,NAVIGATE,-1,0
1.1807273628709327,0.4804804804804806,1.0596634925468267,1.16498119741363,0.48353239454460256,0.8560808112089549,0.18254333213181342,1.0000000000000024,0.0,0.0,0.0,NAVIGATE,-1,0
1.1971910686534162,0.48848848848848847,1.0737286003556614,1.1679975127422575,0.4864037364253674,0.8543099588064369,0.18320998737943714,0.9999999999999938,0.0,0.0,0.0,NAVIGATE,-1,0
1.2135574245488987,0.4964964964964965,1.087681114721836,1.171006957193143,0.4892969491283297,0.8525119736657879,0.18387993455013046,0.9999999999999942,0.0,0.0,0.0,NAVIGATE,-1,0
1.2298268485981312,0.5045045045045045,1.1015212924148887,1.1740095307662874,0.49221213878101105,0.8506863949929258,0.1845531571405647,0.9999999999999937,0.0,0.0,0.0,NAVIGATE,-1,0
1.2459997610078617,0.5125125125125125,1.1152493902043588,1.1770052334616898,0.4951494081665831,0.8488327545266654,0.18522963703185658,0.9999999999999984,0.0,0.0,0.0,NAVIGATE,-1,0
1.2616004038905926,0.5205205205205206,1.128307833037254,1.1799597108906417,0.5133126928296337,0.8370451737825679,0.1893817742743336,0.9999999999999969,0.0,0.0,0.0,NAVIGATE,-1,0
1.2780619161194373,0.5285285285285286,1.1423703731507033,1.1829760262192694,0.48646855141145506,0.8542678168296222,0.1832344007461499,1.0000000000000044,0.0,0.0,0.0,NAVIGATE,-1,0
1.2934331859466108,0.5365365365365365,1.1551577957356443,1.1859136387664915,0.5209724439194532,0.8319041125890043,0.19111059660333832,0.9999999999999952,0.0,0.0,0.0,NAVIGATE,-1,0
1.309744160545567,0.5445445445445445,1.169046117717178,1.1889193354658818,0.49095827839253553,0.8514710078956595,0.18427450065323883,1.0000000000000067,0.0,0.0,0.0,NAVIGATE,-1,0
1.3254408958930597,0.5525525525525525,1.1822176675318106,1.1918806837725755,0.510170288963128,0.839126705206032,0.18866014117813013,1.0000000000000022,0.0,0.0,0.0,NAVIGATE,-1,0
1.3410436881160686,0.5605605605605607,1.195278678060092,1.1948351612015273,0.5132419821754112,0.8370944342270196,0.1893556862594741,0.9999999999999977,0.0,0.0,0.0,NAVIGATE,-1,0
1.3560439221572698,0.5685685685685686,1.2076241885978218,1.1977450063172148,0.5338588708691016,0.8230211944573965,0.19398664765462972,0.9999999999999967,0.0,0.0,0.0,NAVIGATE,-1,0
1.3714147532443395,0.5765765765765766,1.220411154939368,1.2006823091329082,0.5209873143908564,0.831898175779367,0.1910959009994132,1.0000000000000064,0.0,0.0,0.0,NAVIGATE,-1,0
1.3867353442585357,0.5845845845845846,1.2331385559566657,1.2036158360396947,0.5226957628845865,0.8307382532112748,0.19147609280009215,1.0000000000000047,0.0,0.0,0.0,NAVIGATE,-1,0
1.401917217489807,0.5925925925925927,1.245701034913023,1.2065390543047487,0.5274716687472655,0.8274656733716889,0.19254661269551898,1.0000000000000027,0.0,0.0,0.0,NAVIGATE,-1,0
1.417002992877716,0.6006006006006007,1.2581489000560035,1.2094550584508859,0.5308317141209946,0.8251392336755337,0.19329494647482676,0.9999999999999932,0.0,0.0,0.0,NAVIGATE,-1,0
1.4327145369300205,0.6086086086086087,1.2713377953105505,1.212417737342662,0.5096894348097711,0.8394397909359118,0.18856701046778862,0.9999999999999951,0.0,0.0,0.0,NAVIGATE,-1,0
1.4476720812556327,0.6166166166166166,1.283632220381449,1.2153241186274215,0.5353825356409333,0.8219547810295569,0.19430871949902465,1.0000000000000062,0.0,0.0,0.0,NAVIGATE,-1,0
1.4625392425549144,0.6246246246246245,1.2958181603223042,1.2182236290344397,0.5386373260371404,0.8196547878608166,0.19502784349008742,0.9999999999999974,0.0,0.0,0.0,NAVIGATE,-1,0
1.4767599305765444,0.6326326326326326,1.3072189997595052,1.2210733019418756,0.5631238091875495,0.8017080059600481,0.20038924298890828,0.9999999999999999,0.0,0.0,0.0,NAVIGATE,-1,0
1.4914520879097788,0.6406406406406405,1.3191940741097006,1.2239592834309856,0.5450532434670733,0.8150657577772603,0.19643006970676682,1.0000000000000007,0.0,0.0,0.0,NAVIGATE,-1,0
1.5066097407726746,0.6486486486486487,1.3317276370599966,1.2268809349890428,0.5283145141561351,0.8268801946887677,0.19275092156313325,1.0000000000000022,0.0,0.0,0.0,NAVIGATE,-1,0
1.5205831848375562,0.6566566566566565,1.342823615043814,1.2297108147321938,0.573087634718042,0.7940761012314828,0.20251841493129805,0.9999999999999987,0.0,0.0,0.0,NAVIGATE,-1,0
1.535550386700633,0.6646646646646646,1.3551295700097825,1.232618117903403,0.5350370818317945,0.8221947614888884,0.1942449362149228,0.9999999999999959,0.0,0.0,0.0,NAVIGATE,-1,0
1.549305664569852,0.6726726726726726,1.3659540981545275,1.2354304243317158,0.5821771166054075,0.7869363489172209,0.2044528983748151,1.0000000000000073,0.0,0.0,0.0,NAVIGATE,-1,0
1.563551214813602,0.6806806806806805,1.3773855682132154,1.2382815647681402,0.5621410104198216,0.8024590039056823,0.20014252785183395,1.00000000000002,0.0,0.0,0.0,NAVIGATE,-1,0
1.577709557791544,0.6886886886886887,1.3887099165818273,1.241125790084643,0.5656034763731992,0.7998357142678697,0.2008868778595057,0.9999999999999907,0.0,0.0,0.0,NAVIGATE,-1,0
1.591732111745367,0.6966966966966966,1.3998667732900953,1.2439592289004182,0.5710805630970448,0.7956365684174329,0.20206296407243604,1.0000000000000224,0.0,0.0,0.0,NAVIGATE,-1,0
1.6063627635662117,0.7047047047047046,1.4117673668769646,1.2468408348288227,0.5473445821872943,0.8134014623951508,0.19695677018975996,0.9999999999999678,0.0,0.0,0.0,NAVIGATE,-1,0
1.6202664672078386,0.7127127127127127,1.4227769171768898,1.2496647655806814,0.5759622194501185,0.79184299260833,0.2031063682488179,1.0000000000000233,0.0,0.0,0.0,NAVIGATE,-1,0
1.6340854551374255,0.7207207207207208,1.4336810635812345,1.2524818254547982,0.5794930894224634,0.7890698262351422,0.20385428285130971,0.9999999999999851,0.0,0.0,0.0,NAVIGATE,-1,0
1.6478202190547426,0.7287287287287287,1.4444800628595371,1.2552920144511734,0.5830466439915479,0.786252995924234,0.20460409900690374,1.0000000000000335,0.0,0.0,0.0,NAVIGATE,-1,0
1.6614712538273118,0.7367367367367368,1.4551741717813365,1.2580953325698068,0.5866227829189642,0.7833918160759843,0.20535572323545842,0.9999999999999886,0.0,0.0,0.0,NAVIGATE,-1,0
1.6750390575292555,0.7447447447447446,1.465763647116171,1.2608917798106984,0.5902213935230042,0.7804855942393594,0.20610905805565616,0.9999999999999963,0.0,0.0,0.0,NAVIGATE,-1,0
1.6885241314801809,0.7527527527527529,1.4762487456335796,1.2636813561738482,0.5938423502274348,0.7775336312997407,0.2068640018810117,1.0000000000000158,0.0,0.0,0.0,NAVIGATE,-1,0
1.7019269802840549,0.7607607607607607,1.4866297241031003,1.2664640616592566,0.5974855141015375,0.7745352216851282,0.2076204489156109,0.9999999999999646,0.0,0.0,0.0,NAVIGATE,-1,0
1.7148453238373342,0.7687687687687688,1.4963888067502196,1.2692055418782144,0.6198943366833737,0.7554438080137484,0.2122160792249468,1.0000000000000209,0.0,0.0,0.0,NAVIGATE,-1,0
1.728494347191651,0.7767767767767767,1.5070803479766333,1.272008859996848,0.5867092318715446,0.7833191393164639,0.20538598593187635,0.9999999999999962,0.0,0.0,0.0,NAVIGATE,-1,0
1.7416535816040124,0.7847847847847846,1.5171505069197224,1.2747709528490305,0.6085466492249294,0.7652541650621797,0.209897685961723,0.9999999999999946,0.0,0.0,0.0,NAVIGATE,-1,0
1.7543020294735896,0.7927927927927928,1.5265562980244631,1.2774886973085169,0.6331217941190636,0.743632041000389,0.2148678231123711,0.9999999999999977,0.0,0.0,0.0,NAVIGATE,-1,0
1.7677400419883005,0.8008008008008006,1.5369818026662396,1.2802745259201713,0.5959220531489524,0.7758219178887852,0.20730957115903356,1.000000000000019,0.0,0.0,0.0,NAVIGATE,-1,0
1.7806603254006943,0.8088088088088087,1.546743453008744,1.2830160061391291,0.619801265375212,0.7555291189000184,0.21218421697530582,0.9999999999999878,0.0,0.0,0.0,NAVIGATE,-1,0
1.7935020111063096,0.8168168168168167,1.5564027806901315,1.285750615480345,0.6235947671968323,0.7521853363194919,0.21294784842929004,1.000000000000001,0.0,0.0,0.0,NAVIGATE,-1,0
1.8058435514479572,0.8248248248248248,1.5653999718816805,1.2884405925082962,0.6488661695642919,0.729016876539079,0.21796120690653126,0.9999999999999913,0.0,0.0,0.0,NAVIGATE,-1,0
1.818960293902757,0.8328328328328328,1.5754154951477068,1.2911992215295518,0.6105180486392568,0.7635678828443754,0.21031357677119816,1.000000000000011,0.0,0.0,0.0,NAVIGATE,-1,0
1.8311532764267606,0.8408408408408407,1.5842120020392223,1.2938754309910587,0.6567718761380062,0.7214401295333793,0.21948768123290704,0.9999999999999869,0.0,0.0,0.0,NAVIGATE,-1,0
1.8441108535103392,0.8488488488488488,1.5940220001952743,1.296620344067791,0.6180173929396785,0.7570858419576304,0.21183845243807112,1.000000000000004,0.0,0.0,0.0,NAVIGATE,-1,0
1.8565676078160327,0.8568568568568569,1.603173566114151,1.299320599020298,0.6428647311722211,0.7346669681599135,0.21677034693321776,0.9999999999999796,0.0,0.0,0.0,NAVIGATE,-1,0
1.8689490131798159,0.8648648648648649,1.6122243499891422,1.302013983095064,0.6467769831227926,0.7309981063591995,0.21753460093023516,1.0000000000000167,0.0,0.0,0.0,NAVIGATE,-1,0
1.8812556241849823,0.872872872872873,1.6211746085897853,1.3047004962920876,0.650707819126341,0.727272406423325,0.2182983760432255,1.000000000000021,0.0,0.0,0.0,NAVIGATE,-1,0
1.8934879992573865,0.8808808808808811,1.6300245986856194,1.3073801386113697,0.6546568397885294,0.7234891052187653,0.21906149079153445,0.9999999999999817,0.0,0.0,0.0,NAVIGATE,-1,0
1.9052851089256853,0.888888888888889,1.638275802217522,1.3100185556642012,0.6788110166956407,0.6994258563243796,0.22364944694220265,1.000000000000007,0.0,0.0,0.0,NAVIGATE,-1,0
1.9173385165785501,0.8968968968968969,1.646881966293804,1.3126813331017535,0.6643770988783053,0.7140025728936886,0.2209149075713357,1.0000000000000062,0.0,0.0,0.0,NAVIGATE,-1,0
1.929316653296085,0.9049049049049048,1.6553846267812973,1.3153369557409962,0.6685520625495074,0.7098483418582341,0.2217058213532573,1.0000000000000036,0.0,0.0,0.0,NAVIGATE,-1,0
1.9416918445464413,0.912912912912913,1.6644270094116342,1.3180299991110802,0.6471017575407277,0.73068629384428,0.21761630310210364,1.0000000000000073,0.0,0.0,0.0,NAVIGATE,-1,0
1.953561553134094,0.9209209209209209,1.6727795085265003,1.3206752870416534,0.6746591922516252,0.7036819019764817,0.22286039383687128,0.9999999999999898,0.0,0.0,0.0,NAVIGATE,-1,0
1.9649111755963655,0.928928928928929,1.6803925143604816,1.3232691027543728,0.7055748360465988,0.6707717247237573,0.22853762064260785,1.0000000000000266,0.0,0.0,0.0,NAVIGATE,-1,0
1.9771038260918363,0.9369369369369368,1.6891885798630384,1.325945250269574,0.6567897612567963,0.7214235744577611,0.21948857766368315,0.9999999999999994,0.0,0.0,0.0,NAVIGATE,-1,0
1.9883456976160014,0.944944944944945,1.696643908251553,1.328527799732588,0.7123376201902362,0.6631750213911352,0.22972593642103856,0.9999999999999724,0.0,0.0,0.0,NAVIGATE,-1,0
2.000366187734178,0.9529529529529528,1.7052047938055737,1.3311877299865287,0.6661964636449076,0.7121910562594654,0.22128301157359256,1.0000000000000162,0.0,0.0,0.0,NAVIGATE,-1,0
2.011477089823029,0.960960960960961,1.7124660443634632,1.3337564248510982,0.7207342791764438,0.6535248443216483,0.23118688689976294,1.000000000000013,0.0,0.0,0.0,NAVIGATE,-1,0
2.0233552326917508,0.9689689689689689,1.7208302045104151,1.3364027261925155,0.6741801388073241,0.7041639622787413,0.22278746523463208,1.000000000000016,0.0,0.0,0.0,NAVIGATE,-1,0
2.034741775595103,0.9769769769769768,1.7284970005725466,1.3389999179788967,0.7032870359317088,0.673320789918972,0.2280930927346283,0.9999999999999825,0.0,0.0,0.0,NAVIGATE,-1,0
2.0460617057752133,0.9849849849849849,1.7360668661338705,1.3415902388875358,0.7074255654048692,0.6687201635417014,0.2288283467675847,1.0000000000000124,0.0,0.0,0.0,NAVIGATE,-1,0
2.056957676706084,0.9929929929929929,1.7430034116266826,1.3441354946499706,0.7349513006977131,0.6366156386448479,0.23359604927207384,0.9999999999999845,0.0,0.0,0.0,NAVIGATE,-1,0
2.068515681182612,1.0010010010010013,1.7509168328322493,1.3467502680715895,0.6928538593553111,0.6846701973197267,0.22623052508146624,1.000000000000009,0.0,0.0,0.0,NAVIGATE,-1,0
2.079639481924235,1.0090090090090087,1.75819744750838,1.3493199763470027,0.7198985485278611,0.654507829224968,0.23100991604407087,0.9999999999999948,0.0,0.0,0.0,NAVIGATE,-1,0
2.0906991565839657,1.0170170170170167,1.7653821587618581,1.3518828137446752,0.7240726562387919,0.6496313385816318,0.23172810019484785,0.9999999999999879,0.0,0.0,0.0,NAVIGATE,-1,0
2.10135497708233,1.025025025025025,1.7719454879136807,1.3544009536696733,0.7515149123652733,0.6159384115779822,0.2363159106691609,0.9999999999999936,0.0,0.0,0.0,NAVIGATE,-1,0
2.1126404495204545,1.033033033033033,1.7794648980790084,1.3569878759067946,0.7095855359103423,0.6662911284002312,0.22922586992301422,0.9999999999999919,0.0,0.0,0.0,NAVIGATE,-1,0
2.1235115568814438,1.0410410410410413,1.7863634396817574,1.359530100671242,0.7366322254110764,0.6345757956088446,0.2338515001305235,0.9999999999999846,0.0,0.0,0.0,NAVIGATE,-1,0
2.133991978701325,1.0490490490490492,1.7926462129335166,1.3620276613878806,0.7640921468272258,0.5994771355329365,0.23830727040975047,0.9999999999999797,0.0,0.0,0.0,NAVIGATE,-1,0
2.1447110878664803,1.0570570570570572,1.7993091886457264,1.364552708654111,0.7470777547484633,0.62159789676078,0.23556502945585422,0.9999999999999839,0.0,0.0,0.0,NAVIGATE,-1,0
2.1557687715887988,1.065065065065065,1.8064908335011611,1.367115549698132,0.7242030256160037,0.649470995534042,0.2317701526268386,1.0000000000000109,0.0,0.0,0.0,NAVIGATE,-1,0
2.1663975080226594,1.073073073073073,1.8130114103431438,1.369630290951612,0.7534299168898788,0.6134856088076179,0.23659832653942628,1.0,0.0,0.0,0.0,NAVIGATE,-1,0
2.176967296734327,1.0810810810810814,1.8194381379187818,1.3721381613273507,0.7576317962882618,0.6080280080285475,0.23726778691141062,0.9999999999999901,0.0,0.0,0.0,NAVIGATE,-1,0
2.1871379357326153,1.0890890890890892,1.82520569854454,1.3745976226109227,0.7873652785587749,0.5670794752157574,0.24181974052819818,1.0000000000000204,0.0,0.0,0.0,NAVIGATE,-1,0
2.197948620779069,1.0970970970970968,1.832011072349175,1.3771332894456012,0.7407493580283921,0.62950440008124,0.23455191079776827,1.0000000000000004,0.0,0.0,0.0,NAVIGATE,-1,0
2.2083455825917326,1.1051051051051048,1.8381577927430088,1.3796205471881144,0.7702257786745026,0.5912035173916881,0.23922928518249287,0.9999999999999871,0.0,0.0,0.0,NAVIGATE,-1,0
2.218384536137302,1.113113113113113,1.8436974479960206,1.3820628034628657,0.797693501783592,0.5518160063064237,0.24327797351240105,1.0000000000000204,0.0,0.0,0.0,NAVIGATE,-1,0
2.2289849909362207,1.1211211211211214,1.850173023735643,1.3845744500399153,0.7554400410089347,0.6108771616367797,0.2369376243466282,1.0000000000000064,0.0,0.0,0.0,NAVIGATE,-1,0
2.2392152389626596,1.129129129129129,1.8560420478735193,1.387041095149203,0.7827775032738039,0.5736932401549255,0.24111293322633648,1.0000000000000173,0.0,0.0,0.0,NAVIGATE,-1,0
2.249103620997352,1.137137137137137,1.8613132952223082,1.3894630485747657,0.809840070894583,0.533074807414918,0.24492919236590335,1.0000000000000042,0.0,0.0,0.0,NAVIGATE,-1,0
2.259527591804366,1.145145145145145,1.8675041972800865,1.3919537727345532,0.7682300877722993,0.5939101492506925,0.23894197383128657,1.0000000000000029,0.0,0.0,0.0,NAVIGATE,-1,0
2.2695973515950474,1.153153153153153,1.8730978360878536,1.394399805210616,0.7952531316008475,0.5554888025177483,0.2429087214499595,1.0000000000000056,0.0,0.0,0.0,NAVIGATE,-1,0
2.2796150178262864,1.1611611611611614,1.8786001933246617,1.396838966808937,0.7993885824461178,0.5492653787615248,0.24348601181328694,0.9999999999999974,0.0,0.0,0.0,NAVIGATE,-1,0
2.289581298433012,1.1691691691691692,1.8840115257600483,1.3992712575295154,0.8035101884050504,0.5429640854919088,0.24405200059659674,0.9999999999999928,0.0,0.0,0.0,NAVIGATE,-1,0
2.2994969052849488,1.1771771771771768,1.8893320901635522,1.4016966773723527,0.8076165309482372,0.5365848488098109,0.24460629380072488,1.0000000000000195,0.0,0.0,0.0,NAVIGATE,-1,0
2.309362554133973,1.1851851851851851,1.894562143304713,1.4041152263374481,0.8117061665741583,0.5301276399755621,0.24514849475253767,1.0000000000000047,0.0,0.0,0.0,NAVIGATE,-1,0
2.319178964557289,1.1931931931931932,1.8997019419530694,1.4065269044248023,0.8157776277352199,0.5235924769555514,0.24567820449173183,1.0000000000000169,0.0,0.0,0.0,NAVIGATE,-1,0
2.328946859896345,1.2012012012012012,1.9047517428781584,1.4089317116344144,0.8198294238461895,0.5169794259463366,0.2461950221760418,1.0000000000000202,0.0,0.0,0.0,NAVIGATE,-1,0
2.338437835771231,1.2092092092092093,1.9092643819285713,1.4112952935775753,0.8437496958766678,0.4754662860700796,0.24903465927198118,0.999999999999978,0.0,0.0,0.0,NAVIGATE,-1,0
2.3480903385232015,1.217217217217217,1.9140955669342588,1.4136832359054579,0.829630222728839,0.5005111244025622,0.24739100202743824,0.99999999999998,0.0,0.0,0.0,NAVIGATE,-1,0
2.3579770062403655,1.225225225225225,1.9193637270092105,1.4161049079967996,0.809980494651931,0.5328549745639606,0.24494320640891737,1.0000000000000138,0.0,0.0,0.0,NAVIGATE,-1,0
2.367300365131899,1.2332332332332332,1.923527605120261,1.4184413471336754,0.8589187760733146,0.44660708222136797,0.2506005790464163,0.9999999999999818,0.0,0.0,0.0,NAVIGATE,-1,0
2.3768132506110606,1.241241241241241,1.9280845074001187,1.4208080831762362,0.8418064135797491,0.4790241919594071,0.24879265578727197,1.000000000000023,0.0,0.0,0.0,NAVIGATE,-1,0
2.386603061782406,1.249249249249249,1.9331749753342518,1.4232162664595094,0.817994123466596,0.5199761103700161,0.2459887367717506,0.9999999999999887,0.0,0.0,0.0,NAVIGATE,-1,0
2.396051906423429,1.2572572572572571,1.9376019817435544,1.4255729775249288,0.847511871794395,0.4685235684881774,0.24941790821573323,1.0000000000000233,0.0,0.0,0.0,NAVIGATE,-1,0
2.4054581494308027,1.2652652652652652,1.9419410445858984,1.4279228177126073,0.8513503214546496,0.461296060386988,0.24981708274349587,0.9999999999999808,0.0,0.0,0.0,NAVIGATE,-1,0
2.4148225445377483,1.2732732732732732,1.9461924206308236,1.4302657870225435,0.8551548622792029,0.4539936639123626,0.2501997494956604,1.0000000000000124,0.0,0.0,0.0,NAVIGATE,-1,0
2.4241458483820986,1.2812812812812813,1.9503563666478676,1.4326018854547384,0.8589238473506039,0.44661700257330944,0.25056551531467797,1.0000000000000204,0.0,0.0,0.0,NAVIGATE,-1,0
2.4334288203944894,1.2892892892892893,1.9544331394065686,1.4349311130091909,0.86265562336276,0.43916676181500547,0.25091399083648963,0.9999999999999819,0.0,0.0,0.0,NAVIGATE,-1,0
2.442672222681776,1.297297297297297,1.9584229956764658,1.4372534696859014,0.866348532620045,0.43164368983321677,0.2512447910986948,0.999999999999983,0.0,0.0,0.0,NAVIGATE,-1,0
2.4518768199056864,1.3053053053053052,1.9623261922270978,1.4395689554848707,0.8700009151086237,0.4240485982909547,0.25155753615753235,1.000000000000007,0.0,0.0,0.0,NAVIGATE,-1,0
2.461043379156722,1.313313313313313,1.9661429858280035,1.4418775704060987,0.8736111106359804,0.41638236293235625,0.25185185171492436,0.9999999999999999,0.0,0.0,0.0,NAVIGATE,-1,0
2.4699969913869393,1.321321321321321,1.9694441861954728,1.4441449600608758,0.8943885218730103,0.36870039516880077,0.25323741932055194,0.9999999999999756,0.0,0.0,0.0,NAVIGATE,-1,0
2.479073927449075,1.3293293293293293,1.9730511874120287,1.4464367101003734,0.8822369082683732,0.39738092147662546,0.2524805753626131,0.999999999999993,0.0,0.0,0.0,NAVIGATE,-1,0
2.4881140293486768,1.3373373373373374,1.9765691235516998,1.4487213053415617,0.8858316086415777,0.389147841334185,0.25271786386488887,1.0000000000000069,0.0,0.0,0.0,NAVIGATE,-1,0
2.4971180055482414,1.3453453453453452,1.979997939344409,1.4509987199734795,0.8893857369808524,0.38081129011368897,0.252934323841049,0.9999999999999774,0.0,0.0,0.0,NAVIGATE,-1,0
2.506339954312935,1.3533533533533533,1.983939896520479,1.4533175818461104,0.8683639664825331,0.4274538144434288,0.25145030966867454,0.9999999999999937,0.0,0.0,0.0,NAVIGATE,-1,0
2.51529451357155,1.3613613613613613,1.9872436645833338,1.4555849715008873,0.8942939319211737,0.3689481489193541,0.2532106370947819,0.999999999999998,0.0,0.0,0.0,NAVIGATE,-1,0
2.524216460926158,1.3693693693693694,1.9904628270832316,1.457845490277922,0.8975627953993738,0.3608138864701095,0.25336607437694536,0.9999999999999934,0.0,0.0,0.0,NAVIGATE,-1,0
2.5329269187130916,1.3773773773773772,1.9930806606833344,1.4600570123428818,0.9193555842748721,0.30053915237725154,0.2538927481259559,0.9999999999999891,0.0,0.0,0.0,NAVIGATE,-1,0
2.5419875900234903,1.3853853853853855,1.9966483624723117,1.4623459151987679,0.8838206059652237,0.3937568935849933,0.25261956619695647,0.9999999999999887,0.0,0.0,0.0,NAVIGATE,-1,0
2.5508163944084328,1.3933933933933933,1.9996152489005707,1.464585821342578,0.9070319897069495,0.3360462299197681,0.25370435748131925,1.0000000000000233,0.0,0.0,0.0,NAVIGATE,-1,0
2.559615718442279,1.4014014014014013,2.0024985568440274,1.4668188566086464,0.9100708164860858,0.3276737999835203,0.2537735009506606,1.0000000000000229,0.0,0.0,0.0,NAVIGATE,-1,0
2.5682401094430474,1.4094094094094094,2.004836220152104,1.4690068369869609,0.9285302588083695,0.27105256566735497,0.2536967976196267,1.0000000000000235,0.0,0.0,0.0,NAVIGATE,-1,0
2.57696936927503,1.4174174174174174,2.0075123959258896,1.4712226592239084,0.91737537456129,0.30657533688942196,0.2538385017282941,0.9999999999999974,0.0,0.0,0.0,NAVIGATE,-1,0
2.5856857435277996,1.4254254254254255,2.0101490575778245,1.4734351246340864,0.9187315477491946,0.30249523201658685,0.25382863860797455,0.9999999999999886,0.0,0.0,0.0,NAVIGATE,-1,0
2.5943611542232214,1.4334334334334335,2.012656401317591,1.475636893434068,0.9230696147023877,0.28901729587160885,0.2537941864981071,0.9999999999999938,0.0,0.0,0.0,NAVIGATE,-1,0
2.603206960938339,1.4414414414414416,2.015670406223122,1.4778809697728617,0.9052886035054859,0.34072696844936123,0.2536881497714106,1.0000000000000233,0.0,0.0,0.0,NAVIGATE,-1,0
2.611845889492272,1.4494494494494492,2.0180576354180726,1.480072779772479,0.9269677319372708,0.276333943503194,0.2537131758798402,0.9999999999999944,0.0,0.0,0.0,NAVIGATE,-1,0
2.6203188068049177,1.4574574574574575,2.019814704949344,1.4822116678464285,0.9451299608526196,0.2073747997810654,0.25243820929979055,0.999999999999998,0.0,0.0,0.0,NAVIGATE,-1,0
2.629080117158577,1.4654654654654655,2.0225870072834162,1.48443578713849,0.9140194428409028,0.3164255370675544,0.25385692348318256,1.0000000000000153,0.0,0.0,0.0,NAVIGATE,-1,0
2.637526573331808,1.4734734734734736,2.0242252353268317,1.4865643167971407,0.9480908731152325,0.1939544833734526,0.252002687872427,0.9999999999999973,0.0,0.0,0.0,NAVIGATE,-1,0
2.646220464824606,1.4814814814814816,2.0267913089129377,1.4887713109935334,0.921107425212517,0.29515822554626,0.25385573286956714,0.9999999999999972,0.0,0.0,0.0,NAVIGATE,-1,0
2.654634735726928,1.4894894894894894,2.0282740043585306,1.4908863468743088,0.9517173978553377,0.17621199303004387,0.25136294104717394,1.0000000000000202,0.0,0.0,0.0,NAVIGATE,-1,0
2.663277113601181,1.4974974974974975,2.030672594462945,1.4930793513376095,0.9265977633152714,0.27753821220435104,0.25375012470052727,0.9999999999999921,0.0,0.0,0.0,NAVIGATE,-1,0
2.671764554954684,1.5055055055055055,2.032492748131978,1.495223065193035,0.9435126175808832,0.21445257683951052,0.2525748062507226,1.000000000000013,0.0,0.0,0.0,NAVIGATE,-1,0
2.680233467615086,1.5135135135135136,2.034232918089748,1.4973599081707185,0.9455768797157331,0.20547737679553754,0.2523160957456522,1.000000000000023,0.0,0.0,0.0,NAVIGATE,-1,0
2.688684624010065,1.5215215215215216,2.0358933611057948,1.4994898802706609,0.947563579910321,0.19647524414922504,0.25203321301779413,1.0000000000000169,0.0,0.0,0.0,NAVIGATE,-1,0
2.697037688336258,1.5295295295295297,2.037032976395095,1.5015747707650497,0.9586910498099185,0.13643080488756712,0.24959588636844626,0.9999999999999817,0.0,0.0,0.0,NAVIGATE,-1,0
2.705555053671235,1.5375375375375375,2.038976093390869,1.5037292118373196,0.9401977833594499,0.22813592224284873,0.25294688997576864,1.0000000000000158,0.0,0.0,0.0,NAVIGATE,-1,0
2.7139575507671525,1.5455455455455458,2.0403988961989743,1.5058385713040368,0.953050970038305,0.1693309491051681,0.2510395948535408,1.0000000000000204,0.0,0.0,0.0,NAVIGATE,-1,0
2.7223453552026764,1.5535535535535534,2.0417429991435094,1.5079410598930114,0.9547204002625788,0.1602449073374443,0.25066018230828496,0.9999999999999736,0.0,0.0,0.0,NAVIGATE,-1,0
2.730655545066454,1.5615615615615617,2.0425776039575,1.5099988495130077,0.9636371899171293,0.10043149767595065,0.24762245553086346,0.9999999999999752,0.0,0.0,0.0,NAVIGATE,-1,0
2.7390977099472478,1.5695695695695693,2.044196132520026,1.5121254244377362,0.948572803431727,0.19171961047669658,0.25189924086492893,0.9999999999999948,0.0,0.0,0.0,NAVIGATE,-1,0
2.747445972495537,1.5775775775775776,2.0453056764910835,1.5142073003934864,0.9592424725129673,0.1329071725571143,0.24937835192746904,0.999999999999989,0.0,0.0,0.0,NAVIGATE,-1,0
2.755782554317473,1.5855855855855856,2.0463375476767256,1.5162823054714947,0.9605865064427641,0.12377629197219418,0.24890358210702856,1.0000000000000053,0.0,0.0,0.0,NAVIGATE,-1,0
2.7640608885173643,1.5935935935935932,2.0468670197932965,1.5183126463656669,0.9673453396110715,0.0639587752543157,0.24525959512469409,1.00000000000001,0.0,0.0,0.0,NAVIGATE,-1,0
2.772441232276389,1.6016016016016015,2.048169298769917,1.5204117029942854,0.9555703486965674,0.1553968445766901,0.2504738097835306,0.9999999999999738,0.0,0.0,0.0,NAVIGATE,-1,0
2.780747215074523,1.6096096096096093,2.0489696922165432,1.522466095439068,0.9641252820565547,0.09636348474091673,0.24733887544821392,1.0000000000000155,0.0,0.0,0.0,NAVIGATE,-1,0
2.7890444644750203,1.6176176176176174,2.0496934399559086,1.524513617006109,0.9651400869700293,0.08722742976991384,0.24677112476796068,1.0000000000000127,0.0,0.0,0.0,NAVIGATE,-1,0
2.797333705749717,1.6256256256256258,2.050340798757551,1.5265542676954087,0.9660724959778113,0.07809626722032546,0.24618063604069382,0.9999999999999736,0.0,0.0,0.0,NAVIGATE,-1,0
2.8055881373952207,1.6336336336336337,2.0504940135747636,1.5285502573631577,0.9701465045591396,0.018561522318255478,0.2418082496129555,0.9999999999999846,0.0,0.0,0.0,NAVIGATE,-1,0
2.813908318078385,1.6416416416416415,2.051407376625822,1.5306149564407818,0.9624800605847227,0.10977682887421392,0.24815555770344583,0.999999999999979,0.0,0.0,0.0,NAVIGATE,-1,0
2.8221778356861176,1.6496496496496496,2.051827109231528,1.532634994496856,0.968376680221352,0.05075660100339973,0.24427519861440722,1.0000000000000264,0.0,0.0,0.0,NAVIGATE,-1,0
2.8304261743274606,1.6576576576576576,2.0517579534533112,1.5346103718188606,0.9708631466547281,-0.008384206956566862,0.23948790270363557,0.9999999999999982,0.0,0.0,0.0,NAVIGATE,-1,0
2.8387191041857753,1.6656656656656659,2.0524407456337728,1.5366544579757793,0.9656427999302546,0.08233425244480187,0.246485402848208,1.0000000000000147,0.0,0.0,0.0,NAVIGATE,-1,0
2.8469752347793547,1.6736736736736735,2.052635162969388,1.5386538833986276,0.9699468676325589,0.02354823890099585,0.2421746361913523,0.9999999999999825,0.0,0.0,0.0,NAVIGATE,-1,0
2.855228284160657,1.6816816816816815,2.0527549887540517,1.540646437943735,0.9703089898081131,0.01451897100421911,0.24143252427661235,1.0000000000000195,0.0,0.0,0.0,NAVIGATE,-1,0
2.8634777619247496,1.6896896896896898,2.052392496377526,1.5425943317809072,0.9707290857688913,-0.04394125142121957,0.23612329081615385,1.00000000000001,0.0,0.0,0.0,NAVIGATE,-1,0
2.8717444916281454,1.6976976976976976,2.0527718927486736,1.5446109344007242,0.9687032593696987,0.04589437235279874,0.2439420051424413,1.0000000000000249,0.0,0.0,0.0,NAVIGATE,-1,0
2.8799923540548606,1.7057057057057057,2.0526694844977103,1.5465828763126057,0.9709192022977592,-0.012416338399583164,0.23908520897418484,0.9999999999999998,0.0,0.0,0.0,NAVIGATE,-1,0
2.8882493839085304,1.7137137137137137,2.0520898838594857,1.5485101575189284,0.9698412322499969,-0.07019480957392962,0.2334109529065263,1.0000000000000224,0.0,0.0,0.0,NAVIGATE,-1,0
2.8964974349369905,1.7217217217217213,2.051805193833387,1.5504649222364344,0.9708970010461531,-0.03451603598429778,0.2369971658469401,0.9999999999999826,0.0,0.0,0.0,NAVIGATE,-1,0
2.9047467717705233,1.7297297297297296,2.0514442338191055,1.5524125037635719,0.970745669573881,-0.04375624629779602,0.23608946590963978,1.0000000000000073,0.0,0.0,0.0,NAVIGATE,-1,0
2.912998610510186,1.7377377377377374,2.051526774461254,1.5544019351827156,0.9704513455306857,0.010002696944622746,0.24108946889394736,1.0000000000000249,0.0,0.0,0.0,NAVIGATE,-1,0
2.921250952376143,1.745745745745746,2.0510591115416834,1.556339522705889,0.9703921793452996,-0.05667032791019175,0.2347924449381253,0.9999999999999957,0.0,0.0,0.0,NAVIGATE,-1,0
2.9295408467377744,1.7537537537537533,2.050039018574164,1.558224613315997,0.9659963877309826,-0.1230525894564876,0.227396216148769,1.0000000000000158,0.0,0.0,0.0,NAVIGATE,-1,0
2.9377885365608916,1.7617617617617616,2.0499072005967625,1.5601940851190097,0.9709395212175511,-0.01598241207277257,0.23879072143239405,1.0000000000000173,0.0,0.0,0.0,NAVIGATE,-1,0
2.946051131663687,1.7697697697697699,2.0492234661104907,1.5621110600089576,0.9691879982475655,-0.08275057385306016,0.23200639340289003,0.9999999999999751,0.0,0.0,0.0,NAVIGATE,-1,0
2.954318361206034,1.7777777777777775,2.048468221307728,1.5640211640211636,0.968644691306567,-0.0913540381205318,0.23104523739444732,0.9999999999999893,0.0,0.0,0.0,NAVIGATE,-1,0
2.9626313848764942,1.7857857857857857,2.0472430891234183,1.5658858949455265,0.9633086979487814,-0.1473750385991298,0.2243144009067527,1.0000000000000133,0.0,0.0,0.0,NAVIGATE,-1,0
2.9708849147486447,1.7937937937937936,2.046744227830887,1.5678207594123506,0.9702525019057516,-0.06044217447067015,0.2344287228368483,1.0000000000000147,0.0,0.0,0.0,NAVIGATE,-1,0
2.97921545516373,1.8018018018018014,2.045387337064698,1.5696723962017045,0.9612831351860887,-0.162881481702144,0.22227090885975284,1.000000000000011,0.0,0.0,0.0,NAVIGATE,-1,0
2.9875106547004826,1.8098098098098097,2.0443145702089462,1.571551575376614,0.9653785870404076,-0.1293238156597695,0.22653815216665013,1.000000000000008,0.0,0.0,0.0,NAVIGATE,-1,0
2.9957734739647623,1.8178178178178175,2.043628329480415,1.573468620916068,0.9691617052095686,-0.0830516445516268,0.2320086496072038,1.0000000000000033,0.0,0.0,0.0,NAVIGATE,-1,0
3.004080744245581,1.8258258258258258,2.0424494149390218,1.5753374996618237,0.9639758593745067,-0.1419135891262988,0.2249690551264416,1.0000000000000053,0.0,0.0,0.0,NAVIGATE,-1,0
3.012461081444644,1.8338338338338338,2.0407797466902022,1.5771579576406212,0.9555710966980251,-0.19923640411583726,0.2172296812831102,1.0000000000000187,0.0,0.0,0.0,NAVIGATE,-1,0
3.0207393843659145,1.8418418418418416,2.0398827038366147,1.5790546445201095,0.9673489946148035,-0.10836071863021637,0.22911542347827019,0.9999999999999776,0.0,0.0,0.0,NAVIGATE,-1,0
3.029074180947836,1.84984984984985,2.0384954208146775,1.5809029106326402,0.9607922556116213,-0.16644473662936637,0.2217529959327068,1.0000000000000087,0.0,0.0,0.0,NAVIGATE,-1,0
3.037419210713539,1.8578578578578577,2.0370391951716353,1.5827443058674286,0.9596140736273528,-0.17450215085236034,0.22065771920386898,1.000000000000018,0.0,0.0,0.0,NAVIGATE,-1,0
3.0457749887706265,1.8658658658658658,2.0355142836770286,1.5845788302244757,0.958379692866004,-0.18249784570490138,0.2195515898715054,0.9999999999999859,0.0,0.0,0.0,NAVIGATE,-1,0
3.0542142572431654,1.8738738738738738,2.0335418051036127,1.5863683520524157,0.9488983593857445,-0.23372625006945066,0.21204703153632856,0.9999999999999268,0.0,0.0,0.0,NAVIGATE,-1,0
3.0625346081865183,1.8818818818818817,2.032259430211269,1.5882272663053438,0.9624603652572337,-0.15412509653431133,0.22341776994553839,1.000000000000118,0.0,0.0,0.0,NAVIGATE,-1,0
3.071002305104358,1.8898898898898897,2.030157240821522,1.5900033571266965,0.9457126401320607,-0.2482598763447059,0.20974898352949503,0.9999999999999488,0.0,0.0,0.0,NAVIGATE,-1,0
3.079412355202479,1.8978978978978978,2.0283275501039406,1.5918069597089157,0.9521950421908901,-0.21756002594918616,0.21445800692936998,1.0000000000000195,0.0,0.0,0.0,NAVIGATE,-1,0
3.087836459270048,1.905905905905906,2.026427493426841,1.593603378843951,0.9506064910614527,-0.2255500005530896,0.21324750034262815,1.0000000000000226,0.0,0.0,0.0,NAVIGATE,-1,0
3.096186894380236,1.9139139139139134,2.024936790920659,1.59544168793418,0.9589929030449207,-0.1785179438570061,0.2201453057201944,1.0000000000000477,0.0,0.0,0.0,NAVIGATE,-1,0
3.104738173922846,1.921921921921922,2.0224942861390707,1.5971824808430142,0.9364689773156653,-0.2856303281184543,0.20357104456239902,0.9999999999999649,0.0,0.0,0.0,NAVIGATE,-1,0
3.1131100149060984,1.92992992992993,2.0208731134084252,1.5990076734821477,0.9565408640737362,-0.19364590582747154,0.2180156840992042,0.9999999999999578,0.0,0.0,0.0,NAVIGATE,-1,0
3.1216984864583504,1.937937937937938,2.0182936950725705,1.600734014235357,0.9324136383624975,-0.30033496881973054,0.20100674988632447,1.000000000000101,0.0,0.0,0.0,NAVIGATE,-1,0
3.130093352562722,1.945945945945946,2.0165439361933157,1.6025461755191484,0.9539172999838227,-0.2084320175569625,0.21586541837131146,0.9999999999999568,0.0,0.0,0.0,NAVIGATE,-1,0
3.1385989714138662,1.9539539539539537,2.014280427121029,1.6043051202210357,0.9414962212808827,-0.2661192691443267,0.20679796880984322,0.9999999999999841,0.0,0.0,0.0,NAVIGATE,-1,0
3.147120868240259,1.9619619619619622,2.01195131343164,1.6060571940451818,0.9396978361915067,-0.27330930388357527,0.205596695177047,1.0000000000000238,0.0,0.0,0.0,NAVIGATE,-1,0
3.155659449599736,1.96996996996997,2.009556851894686,1.607802396991586,0.937861650649913,-0.28042849697702443,0.2043902696397212,0.9999999999999852,0.0,0.0,0.0,NAVIGATE,-1,0
3.1642151137880457,1.9779779779779783,2.007097299279706,1.6095407290602484,0.9359890514345341,-0.28747652559116527,0.20317909053017966,0.9999999999999789,0.0,0.0,0.0,NAVIGATE,-1,0
3.1728820242240627,1.985985985985986,2.0042500246614945,1.6112378358624602,0.9239749351428561,-0.32852244628938426,0.19581450791958496,0.9999999999999979,0.0,0.0,0.0,NAVIGATE,-1,0
3.1813883267485212,1.9939939939939937,2.0019839478938217,1.6129967805643477,0.9414205508188632,-0.2663997384477012,0.2067813479276068,0.9999999999999267,0.0,0.0,0.0,NAVIGATE,-1,0
3.1901043559975086,2.0020020020020017,1.9989809892358423,1.6146770224848304,0.9187679136045114,-0.3445328798464355,0.1927760764086314,0.9999999999999859,0.0,0.0,0.0,NAVIGATE,-1,0
3.1987411522611904,2.01001001001001,1.9962331353585505,1.616384463995712,0.9271965858083782,-0.31815661657398475,0.1976938506771812,1.000000000000045,0.0,0.0,0.0,NAVIGATE,-1,0
3.207397948410928,2.0180180180180183,1.9934187011013262,1.6180847248973225,0.9250544739061609,-0.325112687019854,0.19640763998608612,0.9999999999999888,0.0,0.0,0.0,NAVIGATE,-1,0
3.215946206783608,2.026026026026026,1.9909874500454412,1.6198264330396464,0.9367999490517113,-0.28441478367747414,0.20375005836162619,0.9999999999999797,0.0,0.0,0.0,NAVIGATE,-1,0
3.224772473427117,2.034034034034034,1.9876603277896043,1.6214711360829681,0.9072927809061175,-0.3769569162386277,0.186341871342781,1.0000000000000107,0.0,0.0,0.0,NAVIGATE,-1,0
3.2333532400031064,2.042042042042042,1.98510841189556,1.6232000340108448,0.9332508858143271,-0.29739952385897944,0.20148525339384146,0.9999999999999772,0.0,0.0,0.0,NAVIGATE,-1,0
3.242226486913271,2.05005005005005,1.981651726787068,1.6248302629926654,0.9024890312512691,-0.38956259681360716,0.1837240638433201,1.0000000000000597,0.0,0.0,0.0,NAVIGATE,-1,0
3.25097392186441,2.0580580580580583,1.9785527887142544,1.626499397136147,0.915469283594479,-0.35426820435058626,0.19081412468969458,0.9999999999999358,0.0,0.0,0.0,NAVIGATE,-1,0
3.259741354533567,2.0660660660660657,1.975394373191339,1.628161953822849,0.9133811812640059,-0.3602440579927532,0.1896286803034816,0.9999999999999785,0.0,0.0,0.0,NAVIGATE,-1,0
3.2685430901004,2.074074074074074,1.9721363783970303,1.62981356717118,0.9098214718224972,-0.3701536781661244,0.1876463267715948,1.0000000000000189,0.0,0.0,0.0,NAVIGATE,-1,0
3.2772016002216127,2.0820820820820822,1.9693166573246528,1.6315137960783606,0.9248713573007307,-0.32565892202046703,0.19636506551111027,1.0000000000000056,0.0,0.0,0.0,NAVIGATE,-1,0
3.28603371555136,2.09009009009009,1.9659727904188589,1.6331559358586383,0.9066919655177085,-0.3786031749983407,0.18592825376122762,0.9999999999999446,0.0,0.0,0.0,NAVIGATE,-1,0
3.294887926217065,2.098098098098098,1.9625676839781176,1.6347912047611746,0.9044293512266898,-0.3845748163560512,0.18468827592618872,1.0000000000001046,0.0,0.0,0.0,NAVIGATE,-1,0
3.3037645047678623,2.1061061061061057,1.9591015947719672,1.636419602785969,0.9021503006119936,-0.39047581073217447,0.1834488384770889,0.9999999999999262,0.0,0.0,0.0,NAVIGATE,-1,0
3.312663716419135,2.1141141141141135,1.9555747795699463,1.6380411299330213,0.8998558885676983,-0.3963064752501551,0.18221020137446264,1.0000000000000429,0.0,0.0,0.0,NAVIGATE,-1,0
3.321585819125014,2.1221221221221223,1.9519874951415939,1.6396557862023324,0.8975471670744193,-0.4020671523976827,0.18097261626983754,1.0000000000000233,0.0,0.0,0.0,NAVIGATE,-1,0
3.3306514056940215,2.13013013013013,1.9480402198201752,1.6412292172051932,0.8833414084185814,-0.4354131187620177,0.1735608601698023,0.9999999999999358,0.0,0.0,0.0,NAVIGATE,-1,0
3.339506604147921,2.138138138138138,1.9446325456840485,1.642864486107729,0.9043284630714645,-0.38482188218221,0.18466767414068716,0.9999999999999934,0.0,0.0,0.0,NAVIGATE,-1,0
3.3484988562417826,2.146146146146146,1.940865394193932,1.6444585297438152,0.8905453188389733,-0.4189330382194431,0.1772685662554261,1.0000000000000182,0.0,0.0,0.0,NAVIGATE,-1,0
3.357650378766641,2.154154154154154,1.9367156210773269,1.646008224987204,0.8750465276412067,-0.45345166395350645,0.16933742327346787,1.000000000000017,0.0,0.0,0.0,NAVIGATE,-1,0
3.366702075184567,2.162162162162162,1.9328017459555136,1.6475851198209919,0.8846969273239021,-0.43239133761294546,0.17420986751887826,1.0000000000000056,0.0,0.0,0.0,NAVIGATE,-1,0
3.3757792810108724,2.17017017017017,1.9288263880332466,1.6491548340455096,0.8822106891970461,-0.43794951864444776,0.17292923114828143,0.9999999999999831,0.0,0.0,0.0,NAVIGATE,-1,0
3.3847145459537904,2.178178178178178,1.9252049344470765,1.65076599551074,0.8962250206531285,-0.405298959718077,0.1803149067792942,1.0000000000000406,0.0,0.0,0.0,NAVIGATE,-1,0
3.3938282168746814,2.186186186186186,1.9211431399114587,1.6523256847581171,0.8786808386565458,-0.4456815009972662,0.1711373233591099,0.9999999999999336,0.0,0.0,0.0,NAVIGATE,-1,0
3.403139478233538,2.194194194194194,1.9166376447896312,1.6538329702466037,0.8600347148875616,-0.4838759162894735,0.1618776909374221,0.9999999999999692,0.0,0.0,0.0,NAVIGATE,-1,0
3.4121418464195354,2.2022022022022023,1.9128453327083061,1.6554244506196456,0.8895446001046912,-0.4212571628900613,0.1767846349049964,1.0000000000000457,0.0,0.0,0.0,NAVIGATE,-1,0
3.421493646871841,2.2102102102102097,1.9082531237873084,1.6569209788249741,0.85630655282355,-0.49105078154930887,0.16002567772493476,1.0000000000000313,0.0,0.0,0.0,NAVIGATE,-1,0
3.4305546365986888,2.218218218218218,1.9043169464595224,1.6584957329702068,0.8837895472147371,-0.43440920323780796,0.17379493771708462,0.9999999999999113,0.0,0.0,0.0,NAVIGATE,-1,0
3.439794631093753,2.226226226226226,1.8999669281168674,1.6600210678288756,0.8666680496709859,-0.4707814863936087,0.16507962850882787,1.0000000000000493,0.0,0.0,0.0,NAVIGATE,-1,0
3.449060408407517,2.2342342342342336,1.8955600353214184,1.6615395318098014,0.864256471619722,-0.47560961657288015,0.16387874751427134,1.0000000000000098,0.0,0.0,0.0,NAVIGATE,-1,0
3.458501056880583,2.242242242242242,1.8907822921111852,1.6630129024871116,0.8482476633734379,-0.5060821005955223,0.15606668138462448,1.0000000000000417,0.0,0.0,0.0,NAVIGATE,-1,0
3.4676769092660176,2.25025025025025,1.8865766534503012,1.6645558471384294,0.8727263333834651,-0.4583376545551055,0.1681527324662478,0.9999999999999438,0.0,0.0,0.0,NAVIGATE,-1,0
3.477020961011788,2.2582582582582584,1.8820006779137075,1.6660536984861303,0.8570166589277664,-0.4897206973051138,0.16029998425242825,1.0000000000000235,0.0,0.0,0.0,NAVIGATE,-1,0
3.486391393152255,2.2662662662662663,1.8773688550024792,1.6675446789560904,0.854603916656577,-0.4943019533992859,0.1591154439421386,1.0000000000000075,0.0,0.0,0.0,NAVIGATE,-1,0
3.4957883404763113,2.2742742742742736,1.8726814414861488,1.6690287885483073,0.8521924973982572,-0.4988230065236798,0.15793528909304022,1.000000000000052,0.0,0.0,0.0,NAVIGATE,-1,0
3.5053627472934847,2.282282282282282,1.8676347421921924,1.670468198108086,0.8363972996890443,-0.5271030770182243,0.15033929383456715,0.9999999999999407,0.0,0.0,0.0,NAVIGATE,-1,0
3.514668537977271,2.29029029029029,1.863140869716348,1.6719763950995181,0.8605403108798458,-0.48291140737498844,0.16207080544589092,0.9999999999999768,0.0,0.0,0.0,NAVIGATE,-1,0
3.5241457831640037,2.2982982982982985,1.8582882250019523,1.6734398920585103,0.8449721253617888,-0.5120311460538155,0.15442219022052367,1.0000000000000528,0.0,0.0,0.0,NAVIGATE,-1,0
3.5336500266647137,2.3063063063063067,1.8533810167606135,1.6748965181397615,0.8425718477656899,-0.516317604970059,0.15326060208183578,0.9999999999998969,0.0,0.0,0.0,NAVIGATE,-1,0
3.5431813756505175,2.3143143143143137,1.8484195017618665,1.67634627334327,0.8401757211843014,-0.5205469872246605,0.15210388431561278,1.0000000000000646,0.0,0.0,0.0,NAVIGATE,-1,0
3.55273993200432,2.3223223223223224,1.8434039367752533,1.6777891576690371,0.837784254399797,-0.5247199264163057,0.1509521179098616,1.0000000000000149,0.0,0.0,0.0,NAVIGATE,-1,0
3.5624649945299818,2.33033033033033,1.8380668963263573,1.6791908167283542,0.8234402593172776,-0.5487924046568178,0.14412853959740463,0.9999999999999992,0.0,0.0,0.0,NAVIGATE,-1,0
3.5720900908604696,2.3383383383383385,1.8329209507708668,1.6806168361723914,0.8319925051183797,-0.5346383432226625,0.1481563815127994,0.9999999999999983,0.0,0.0,0.0,NAVIGATE,-1,0
3.5815835936702562,2.3463463463463463,1.8280355095835916,1.6820765853798887,0.8435251106422517,-0.5146089157143219,0.15376297208154027,1.0000000000000207,0.0,0.0,0.0,NAVIGATE,-1,0
3.5912518952546044,2.354354354354354,1.8228063123408924,1.6834919861946884,0.8282745359300582,-0.5408599635705056,0.1463960140725341,0.9999999999999837,0.0,0.0,0.0,NAVIGATE,-1,0
3.600947836983902,2.3623623623623624,1.8175243489580186,1.6849005161317472,0.8259133802146441,-0.5447602234359256,0.1452700497160286,1.000000000000018,0.0,0.0,0.0,NAVIGATE,-1,0
3.610840403420924,2.3703703703703702,1.8118778481635962,1.6862612906292946,0.8094975210920634,-0.5707821959416858,0.1375552548684324,1.000000000000064,0.0,0.0,0.0,NAVIGATE,-1,0
3.6205932691149503,2.3783783783783785,1.8064883752205936,1.6876554851587733,0.821092821252846,-0.5526040357864905,0.14295229455816008,0.999999999999959,0.0,0.0,0.0,NAVIGATE,-1,0
3.6302071227581045,2.3863863863863863,1.801364429663734,1.6890848806764724,0.8329654585193415,-0.5329751988172089,0.1486808069641243,1.0000000000000415,0.0,0.0,0.0,NAVIGATE,-1,0
3.640188003948982,2.3943943943943946,1.7955595758012977,1.690424085188797,0.8023347693315663,-0.5815973310795439,0.13417698164252995,0.999999999999943,0.0,0.0,0.0,NAVIGATE,-1,0
3.64985550442674,2.4024024024024024,1.7903320268748768,1.6918401026509131,0.8283431716845172,-0.5407342816737117,0.14647193091677171,1.000000000000019,0.0,0.0,0.0,NAVIGATE,-1,0
3.659718629859705,2.4104104104104103,1.7847388588112634,1.6932074073215213,0.8119138362818566,-0.5670786711197685,0.13862793086239306,1.0000000000000362,0.0,0.0,0.0,NAVIGATE,-1,0
3.6696098003046185,2.418418418418418,1.7790947219942446,1.6945678411143872,0.8096117696693831,-0.570623754635767,0.13754022341870492,0.9999999999999387,0.0,0.0,0.0,NAVIGATE,-1,0
3.679687872805779,2.4264264264264264,1.7731190158840633,1.6958832458304607,0.7945971818605208,-0.5929413694427257,0.13052145793970096,1.0000000000000007,0.0,0.0,0.0,NAVIGATE,-1,0
3.689481042886782,2.4344344344344346,1.7676545691781484,1.6972680960668947,0.8177135638175588,-0.5579854797493012,0.14140980142072382,1.0000000000000595,0.0,0.0,0.0,NAVIGATE,-1,0
3.6994565710311975,2.4424424424424425,1.7618590667181473,1.6986079172265356,0.8027653164901137,-0.5809719922694554,0.13431079941275845,0.9999999999999534,0.0,0.0,0.0,NAVIGATE,-1,0
3.7096179004966703,2.4504504504504503,1.755739665571671,1.6999030441925393,0.7880866411445744,-0.6022244596309358,0.12745644852914917,0.9999999999999867,0.0,0.0,0.0,NAVIGATE,-1,0
3.7194964630375478,2.4584584584584586,1.7501184935419307,1.701266946912592,0.8106450685381741,-0.5690273262410316,0.138066921620315,0.9999999999999942,0.0,0.0,0.0,NAVIGATE,-1,0
3.7295565954136527,2.466466466466467,1.7441739363647937,1.7025861554390083,0.7960141784047584,-0.5909024806926699,0.1311323228260516,0.9999999999999547,0.0,0.0,0.0,NAVIGATE,-1,0
3.7398025904830714,2.4744744744744747,1.7379107296527,1.70386070021571,0.7815744545797596,-0.611283400944376,0.12439443588118547,0.9999999999999849,0.0,0.0,0.0,NAVIGATE,-1,0
3.7497656207713335,2.482482482482482,1.732137564680151,1.7052039598586144,0.8037723239125361,-0.5794587395112966,0.13482440623380842,1.000000000000039,0.0,0.0,0.0,NAVIGATE,-1,0
3.7600829917933356,2.4904904904904903,1.7257548552234874,1.7064613271641988,0.7761674937279006,-0.6186371938211956,0.12186896283007344,1.000000000000046,0.0,0.0,0.0,NAVIGATE,-1,0
3.7700883650933825,2.4984984984984986,1.7199065616852776,1.7077942807672533,0.8003707375886436,-0.5845152762248652,0.13322377517370187,0.9999999999999765,0.0,0.0,0.0,NAVIGATE,-1,0
3.780289761293347,2.5065065065065064,1.7137187153703515,1.709079134904961,0.7849913728510862,-0.6065685709714655,0.12594885175739307,1.0000000000000022,0.0,0.0,0.0,NAVIGATE,-1,0
3.790519414753555,2.5145145145145147,1.7074829815364816,1.7103571181649255,0.7828229997387862,-0.6095742986921376,0.12492928181152176,0.9999999999999929,0.0,0.0,0.0,NAVIGATE,-1,0
3.8007773185077776,2.5225225225225225,1.7011996169532089,1.7116282305471493,0.7806671031312088,-0.612538851389215,0.12391541319545986,0.9999999999999468,0.0,0.0,0.0,NAVIGATE,-1,0
3.8112222615886657,2.5305305305305303,1.6946068006576902,1.7128543696095035,0.7666875679447819,-0.6311969576533161,0.11739068876285202,1.0000000000000517,0.0,0.0,0.0,NAVIGATE,-1,0
3.821381453671518,2.538538538538538,1.6884910226166063,1.7141498426783706,0.7882524459326548,-0.6019945278332534,0.12751733191989445,0.9999999999999815,0.0,0.0,0.0,NAVIGATE,-1,0
3.8317240317017887,2.5465465465465464,1.682066306402355,1.7154003424273696,0.7742758125266542,-0.6211909830844163,0.12090793468892008,0.9999999999999672,0.0,0.0,0.0,NAVIGATE,-1,0
3.842094797637159,2.5545545545545547,1.675594986516853,1.716643971298626,0.7721713186772825,-0.6239963302451277,0.1199167813647015,1.0000000000000346,0.0,0.0,0.0,NAVIGATE,-1,0
3.8524937275311415,2.5625625625625625,1.6690773197296416,1.7178807292921405,0.7700800072362924,-0.6267632202216121,0.11893127524884002,0.9999999999999643,0.0,0.0,0.0,NAVIGATE,-1,0
3.862920794207376,2.570570570570571,1.6625135628102568,1.7191106164079133,0.768001994871679,-0.629492178691528,0.11795140032775597,0.9999999999999817,0.0,0.0,0.0,NAVIGATE,-1,0
3.873375967313114,2.578578578578578,1.6559039725282376,1.7203336326459444,0.7659373907078326,-0.6321837252404645,0.11697713903559809,1.0000000000000937,0.0,0.0,0.0,NAVIGATE,-1,0
3.8838592133719105,2.5865865865865865,1.6492488056531256,1.7215497780062343,0.7638862965816394,-0.634838373323075,0.11600847232517451,0.9999999999999606,0.0,0.0,0.0,NAVIGATE,-1,0
3.8945116948853284,2.5945945945945947,1.6423230036843655,1.7227246981000732,0.7517504722182667,-0.6501585532006198,0.11029543607834198,1.0000000000000109,0.0,0.0,0.0,NAVIGATE,-1,0
3.9049122343087856,2.602602602602602,1.6358027692017676,1.7239614560935879,0.7699608339492717,-0.6269131068233094,0.11891287010799398,1.0000000000000162,0.0,0.0,0.0,NAVIGATE,-1,0
3.915479467904637,2.6106106106106104,1.6290124131646004,1.7251569888206522,0.7578149886978967,-0.6425859687470991,0.1131358284285147,1.0000000000000235,0.0,0.0,0.0,NAVIGATE,-1,0
3.9262282007941187,2.6186186186186187,1.6219355606791097,1.72630817315502,0.7450187934100336,-0.6583894639726304,0.1070995387274362,0.9999999999999698,0.0,0.0,0.0,NAVIGATE,-1,0
3.936700445709569,2.626626626626626,1.615298309314983,1.7275274416415556,0.7646887627878913,-0.6337945128015856,0.11642856869558955,0.9999999999999895,0.0,0.0,0.0,NAVIGATE,-1,0
3.947351257992548,2.6346346346346348,1.6083750750416088,1.7287023617353947,0.7518682890323918,-0.6500193684230217,0.11031272194297737,1.0000000000000144,0.0,0.0,0.0,NAVIGATE,-1,0
3.9580298256892874,2.6426426426426426,1.60140806156191,1.729870410951492,0.7499140554639202,-0.6524295839624817,0.10938257351254257,1.0000000000000135,0.0,0.0,0.0,NAVIGATE,-1,0
3.968736092135912,2.6506506506506504,1.5943975256454244,1.7310315892898473,0.747973913028524,-0.6548067854873721,0.108457821794774,0.9999999999999872,0.0,0.0,0.0,NAVIGATE,-1,0
3.9794699979838617,2.6586586586586582,1.58734372406169,1.7321858967504609,0.7460479085101619,-0.657151430584017,0.1075384372627048,0.9999999999999558,0.0,0.0,0.0,NAVIGATE,-1,0
3.9902314812448965,2.6666666666666665,1.5802469135802482,1.7333333333333334,0.7441360836385547,-0.6594639706533875,0.10662438950466745,1.0000000000000504,0.0,0.0,0.0,NAVIGATE,-1,0
4.001158712326597,2.674674674674675,1.5728948741774718,1.7344395446497545,0.7328487837526365,-0.6728181501614428,0.10123436652434399,0.9999999999999847,0.0,0.0,0.0,NAVIGATE,-1,0
4.011838955441041,2.682682682682682,1.5659252930023877,1.735607593865852,0.7497964158865799,-0.6525676522904631,0.10936541458665963,0.9999999999999798,0.0,0.0,0.0,NAVIGATE,-1,0
4.022682773275098,2.69069069069069,1.5587009964450473,1.7367344178154986,0.7384860323692745,-0.6662133823985151,0.10391395050069092,1.0000000000000215,0.0,0.0,0.0,NAVIGATE,-1,0
